years,place,lat,lon,StateCode
1,"SHELBY BAPTIST MEDICAL CENTER, SHELBY, ALABASTER",33.232422,-86.80871,AL
1,"RUSSELL HOSPITAL, TALLAPOOSA, ALEXANDER CITY",32.903432,-85.92669,AL
1,"MEDICAL WEST, AN AFFILIATE OF UAB HEALTH SYSTEM, JEFFERSON, BESSEMER",33.544622,-86.929208,AL
1,"BIBB MEDICAL CENTER, BIBB, CENTREVILLE",32.963486,-87.13867,AL
1,"CULLMAN REGIONAL MEDICAL CENTER, CULLMAN, CULLMAN",34.223732,-86.7562,AL
1,"ST VINCENT'S ST CLAIR, SAINT CLAIR, PELL CITY",33.606663,-86.28912,AL
1,"COOSA VALLEY MEDICAL CENTER, TALLADEGA, SYLACAUGA",33.185782,-86.25105,AL
1,"CITIZENS BAPTIST MEDICAL CENTER, TALLADEGA, TALLADEGA",33.420206,-86.102782,AL
1,"ST VINCENT'S BIRMINGHAM, JEFFERSON, BIRMINGHAM",33.497055,-86.8057,AL
1,"BROOKWOOD MEDICAL CENTER, JEFFERSON, BIRMINGHAM",33.468306,-86.80814,AL
1,"HUNTSVILLE HOSPITAL, MADISON, HUNTSVILLE",34.72879,-86.57316,AL
1,"HUNTSVILLE HOSPITAL, MADISON, HUNTSVILLE",34.72879,-86.57316,AL
1,"RIVERVIEW REGIONAL MEDICAL CENTER, ETOWAH, GADSDEN",34.016747,-85.99282,AL
1,"GADSDEN REGIONAL MEDICAL CENTER, ETOWAH, GADSDEN",33.996698,-85.92496,AL
1,"MARSHALL MEDICAL CENTER SOUTH, MARSHALL, BOAZ",34.203621,-86.1728,AL
1,"CHEROKEE MEDICAL CENTER, CHEROKEE, CENTRE",34.141067,-85.60472,AL
1,"DEKALB REGIONAL MEDICAL CENTER, DE KALB, FORT PAYNE",34.460537,-85.76744,AL
1,"MEDICAL CENTER BARBOUR, BARBOUR, EUFAULA",31.876168,-85.17362,AL
1,"GEORGIANA MEDICAL CENTER, BUTLER, GEORGIANA",31.655458,-86.76737,AL
1,"L V STABLER MEMORIAL HOSPITAL, BUTLER, GREENVILLE",31.8007,-86.60591,AL
1,"CRENSHAW COMMUNITY HOSPITAL, CRENSHAW, LUVERNE",31.737407,-86.26946,AL
1,"PRATTVILLE BAPTIST HOSPITAL, AUTAUGA, PRATTVILLE",32.488113,-86.52962,AL
1,"COMMUNITY HOSPITAL INC, ELMORE, TALLASSEE",32.553036,-85.9136,AL
1,"TROY REGIONAL MEDICAL CENTER, PIKE, TROY",31.852825,-85.92314,AL
1,"BULLOCK COUNTY HOSPITAL, BULLOCK, UNION SPRINGS",32.145437,-85.70998,AL
1,"ELMORE COMMUNITY HOSPITAL, ELMORE, WETUMPKA",32.592889,-86.21902,AL
1,"JACKSON HOSPITAL & CLINIC INC, MONTGOMERY, MONTGOMERY",32.354888,-86.27161,AL
1,"VA CENTRAL ALABAMA HEALTHCARE SYSTEM - MONTGOMERY, MONTGOMERY, MONTGOMERY",32.386088,-86.24511,AL
1,"BAPTIST MEDICAL CENTER SOUTH, MONTGOMERY, MONTGOMERY",32.31324,-86.23672,AL
1,"BAPTIST MEDICAL CENTER EAST, MONTGOMERY, MONTGOMERY",32.373714,-86.16443,AL
1,"STRINGFELLOW MEMORIAL HOSPITAL, CALHOUN, ANNISTON",33.658803,-85.85178,AL
1,"NORTHEAST ALABAMA REGIONAL MED CENTER, CALHOUN, ANNISTON",33.651673,-85.75895,AL
1,"CLAY COUNTY HOSPITAL, CLAY, ASHLAND",33.243964,-85.84503,AL
1,"RMC JACKSONVILLE, CALHOUN, JACKSONVILLE",33.824496,-85.77037,AL
1,"WEDOWEE HOSPITAL, RANDOLPH, WEDOWEE",33.338853,-85.509,AL
1,"SOUTHEAST ALABAMA MEDICAL CENTER, HOUSTON, DOTHAN",31.180076,-85.4045,AL
1,"FLOWERS HOSPITAL, HOUSTON, DOTHAN",31.214832,-85.47402,AL
1,"MEDICAL CENTER ENTERPRISE, COFFEE, ENTERPRISE",31.32579,-85.84117,AL
1,"WIREGRASS MEDICAL CENTER, GENEVA, GENEVA",31.043454,-85.87941,AL
1,"DALE MEDICAL CENTER, DALE, OZARK",31.447119,-85.62908,AL
1,"EVERGREEN MEDICAL CENTER, CONECUH, EVERGREEN",31.461019,-86.96271,AL
1,"ANDALUSIA REGIONAL HOSPITAL, COVINGTON, ANDALUSIA",31.279043,-86.48699,AL
1,"D W MCMILLAN MEMORIAL HOSPITAL, ESCAMBIA, BREWTON",31.129008,-87.10173,AL
1,"GROVE HILL MEMORIAL HOSPITAL, CLARKE, GROVE HILL",31.704736,-87.77773,AL
1,"MONROE COUNTY HOSPITAL, MONROE, MONROEVILLE",31.509039,-87.32416,AL
1,"MIZELL MEMORIAL HOSPITAL, COVINGTON, OPP",31.280048,-86.25484,AL
1,"ATMORE COMMUNITY HOSPITAL, ESCAMBIA, ATMORE",31.090528,-87.49715,AL
1,"NORTH BALDWIN INFIRMARY, BALDWIN, BAY MINETTE",30.875697,-87.76592,AL
1,"WASHINGTON COUNTY HOSPITAL, WASHINGTON, CHATOM",31.463383,-88.26781,AL
1,"THOMAS HOSPITAL, BALDWIN, FAIRHOPE",30.512458,-87.88559,AL
1,"SOUTH BALDWIN REGIONAL MEDICAL CENTER, BALDWIN, FOLEY",30.396876,-87.69616,AL
1,"JACKSON MEDICAL CENTER, CLARKE, JACKSON",31.508231,-87.88346,AL
1,"UNIVERSITY OF S A CHILDREN'S AND WOMEN'S HOS, MOBILE, MOBILE",30.68164,-88.06676,AL
1,"PROVIDENCE HOSPITAL, MOBILE, MOBILE",30.69044,-88.19701,AL
1,"PROVIDENCE HOSPITAL, MOBILE, MOBILE",30.69044,-88.19701,AL
1,"UNIVERSITY OF SOUTH ALABAMA MEDICAL CENTER, MOBILE, MOBILE",30.717539,-88.09609,AL
1,"MOBILE INFIRMARY, MOBILE, MOBILE",30.658865,-88.177975,AL
1,"VAUGHAN REGIONAL MEDICAL CENTER PARKWAY CAMPUS, DALLAS, SELMA",32.429066,-87.03809,AL
1,"J PAUL JONES HOSPITAL, WILCOX, CAMDEN",32.008444,-87.25911,AL
1,"BRYAN W. WHITFIELD MEMORIAL HOSPITAL, MARENGO, DEMOPOLIS",32.495484,-87.84521,AL
1,"HALE COUNTY HOSPITAL, HALE, GREENSBORO",32.703529,-87.60177,AL
1,"EAST ALABAMA MEDICAL CENTER, LEE, OPELIKA",32.660497,-85.39917,AL
1,"LAKE MARTIN COMMUNITY HOSPITAL, TALLAPOOSA, DADEVILLE",32.787441,-85.79955,AL
1,"JACK HUGHSTON MEMORIAL HOSPITAL, RUSSELL, PHENIX CITY",32.492304,-85.01943,AL
1,"CHOCTAW GENERAL HOSPITAL, CHOCTAW, BUTLER",32.097363,-88.22647,AL
1,"HILL HOSPITAL OF SUMTER COUNTY, SUMTER, YORK",32.487726,-88.2679,AL
1,"PROVIDENCE ALASKA MEDICAL CENTER, ANCHORAGE, ANCHORAGE",61.203953,-149.8144,AL
1,"MAT-SU REGIONAL MEDICAL CENTER, MATANUSKA SUSITNA, PALMER",61.598203,-149.04109,AL
1,"BARTLETT REGIONAL HOSPITAL, JUNEAU, JUNEAU",58.358599,-134.54749,AL
1,"FAIRBANKS MEMORIAL HOSPITAL, FAIRBANKS NORTH STAR, FAIRBANKS",64.83507,-147.72045,AL
1,"PROVIDENCE ALASKA MEDICAL CENTER, ANCHORAGE, ANCHORAGE",61.203953,-149.8144,AL
1,"YUKON KUSKOKWIM DELTA REG HOSPITAL, BETHEL, BETHEL",60.766603,-161.88006,AL
1,"PROVIDENCE ALASKA MEDICAL CENTER, ANCHORAGE, ANCHORAGE",61.203953,-149.8144,AL
1,"MT EDGECUMBE HOSPITAL, SITKA, SITKA",57.064376,-135.3227,AL
1,"MT EDGECUMBE HOSPITAL, SITKA, SITKA",57.064376,-135.3227,AL
1,"PROVIDENCE KODIAK ISLAND MEDICAL CTR, KODIAK ISLAND, KODIAK",57.74663,-152.51142,AL
1,"NORTON SOUND REGIONAL HOSPITAL, NOME, NOME",64.532616,-165.10883,AL
1,"KANAKANAK HOSPITAL, DILLINGHAM, DILLINGHAM",59.068709,-158.44407,AL
1,"PEACEHEALTH KETCHIKAN MEDICAL CENTER, KETCHIKAN GATEWAY, KETCHIKAN",55.368644,-131.6762,AL
1,"ABRAZO MARYVALE CAMPUS, MARICOPA, PHOENIX",33.493496,-112.17108,AL
1,"BANNER - UNIVERSITY MEDICAL CENTER PHOENIX CAMPUS, MARICOPA, PHOENIX",33.466392,-112.04875,AL
1,"TUCSON MEDICAL CENTER, PIMA, TUCSON",32.249551,-110.8878,AL
1,"VERDE VALLEY MEDICAL CENTER, YAVAPAI, COTTONWOOD",34.723788,-112.01002,AL
1,"CARONDELET ST. MARY'S HOSPITAL, PIMA, TUCSON",32.242724,-111.0209,AL
1,"CARONDELET ST JOSEPH'S HOSPITAL, PIMA, TUCSON",32.216326,-110.88511,AL
1,"YAVAPAI REGIONAL MEDICAL CENTER, YAVAPAI, PRESCOTT",34.589477,-112.44726,AL
1,"YUMA REGIONAL MEDICAL CENTER, YUMA, YUMA",32.704499,-114.64644,AL
1,"JOHN C LINCOLN MEDICAL CENTER, MARICOPA, PHOENIX",33.563663,-112.05519,AL
1,"BANNER CASA GRANDE MEDICAL CENTER, PINAL, CASA GRANDE",32.878138,-111.73499,AL
1,"MARICOPA MEDICAL CENTER, MARICOPA, PHOENIX",33.466393,-112.0008,AL
1,"FLAGSTAFF MEDICAL CENTER, COCONINO, FLAGSTAFF",35.279872,-111.72256,AK
1,"ST JOSEPH'S HOSPITAL AND MEDICAL CENTER, MARICOPA, PHOENIX",33.50711,-112.08483,AK
1,"ABRAZO CENTRAL CAMPUS, MARICOPA, PHOENIX",33.50689,-112.10262,AK
1,"PAYSON REGIONAL MEDICAL CENTER, GILA, PAYSON",34.243578,-111.28137,AK
1,"CHANDLER REGIONAL MEDICAL CENTER, MARICOPA, CHANDLER",33.328951,-111.8735,AK
1,"BANNER - UNIVERSITY MEDICAL CENTER PHOENIX CAMPUS, MARICOPA, PHOENIX",33.466392,-112.04875,AK
1,"SCOTTSDALE OSBORN MEDICAL CENTER, MARICOPA, SCOTTSDALE",33.494152,-111.92079,AK
1,"CANYON VISTA MEDICAL CENTER, COCHISE, SIERRA VISTA",31.562546,-110.24288,AK
1,"BANNER BOSWELL MEDICAL CENTER, MARICOPA, SUN CITY",33.60642,-112.28316,AK
1,"SUMMIT HEALTHCARE REGIONAL MEDICAL CENTER, NAVAJO, SHOW LOW",34.271427,-110.03676,AK
1,"BANNER-UNIVERSITY MEDICAL CENTER TUCSON CAMPUS, PIMA, TUCSON",32.240571,-110.944343,AK
1,"BANNER DESERT MEDICAL CENTER, MARICOPA, MESA",33.381097,-111.8756,AK
1,"MT GRAHAM REGIONAL MEDICAL CENTER, GRAHAM, SAFFORD",32.800222,-109.69052,AK
1,"HAVASU REGIONAL MEDICAL CENTER, MOHAVE, LAKE HAVASU CITY",34.483582,-114.33694,AZ
1,"FORT DEFIANCE INDIAN HOSPITAL, APACHE, FORT DEFIANCE",35.771067,-109.17878,AZ
1,"TUBA CITY REGIONAL HEALTH CARE CORPORATION, COCONINO, TUBA CITY",36.061184,-111.06828,AZ
1,"SELLS INDIAN HEALTH SERVICE HOSPITAL, PIMA, SELLS",31.998543,-111.93712,AZ
1,"SAN CARLOS INDIAN HOSPITAL, GILA, SAN CARLOS",33.37214,-110.11686,AZ
1,"PHOENIX INDIAN MEDICAL CENTER, MARICOPA, PHOENIX",33.503742,-112.03235,AZ
1,"ABRAZO SCOTTSDALE CAMPUS, MARICOPA, PHOENIX",33.62414,-112.00416,AZ
1,"CHINLE COMPREHENSIVE HEALTH CARE FACILITY, APACHE, CHINLE",36.165779,-109.61956,AZ
1,"NORTHWEST MEDICAL CENTER, PIMA, TUCSON",32.338126,-111.04259,AZ
1,"SCOTTSDALE SHEA MEDICAL CENTER, MARICOPA, SCOTTSDALE",33.606004,-111.88699,AZ
1,"BANNER BAYWOOD MEDICAL CENTER, MARICOPA, MESA",33.400306,-111.72452,AZ
1,"BANNER THUNDERBIRD MEDICAL CENTER, MARICOPA, GLENDALE",33.624546,-112.1767,AZ
1,"HONORHEALTH DEER VALLEY MEDICAL CENTER, MARICOPA, PHOENIX",33.698731,-112.11429,AZ
1,"BANNER DEL E WEBB MEDICAL CENTER, MARICOPA, SUN CITY WEST",33.683352,-112.36474,AZ
1,"ABRAZO ARROWHEAD CAMPUS, MARICOPA, GLENDALE",33.657722,-112.17825,AZ
1,"WESTERN ARIZONA REGIONAL MEDICAL CENTER, MOHAVE, BULLHEAD CITY",35.097719,-114.59734,AZ
1,"MAYO CLINIC HOSPITAL, MARICOPA, PHOENIX",33.689558,-111.96463,AZ
1,"BANNER BAYWOOD MEDICAL CENTER, MARICOPA, MESA",33.400306,-111.72452,AZ
1,"BANNER BAYWOOD MEDICAL CENTER, MARICOPA, MESA",33.400306,-111.72452,AZ
1,"ABRAZO CENTRAL CAMPUS, MARICOPA, PHOENIX",33.50689,-112.10262,AZ
1,"ABRAZO WEST CAMPUS, MARICOPA, GOODYEAR",33.580089,-112.246311,AZ
1,"BANNER-UNIVERSITY MEDICAL CENTER SOUTH CAMPUS, PIMA, TUCSON",32.194909,-110.9757,AZ
1,"CHANDLER REGIONAL MEDICAL CENTER, MARICOPA, CHANDLER",33.328951,-111.8735,AZ
1,"WHITERIVER PHS INDIAN HOSPITAL, NAVAJO, WHITERIVER",33.849439,-110.03334,AZ
1,"BANNER ESTRELLA MEDICAL CENTER, MARICOPA, PHOENIX",33.493006,-112.25539,AZ
1,"VALLEY VIEW MEDICAL CENTER, MOHAVE, FORT MOHAVE",35.013495,-114.58524,AZ
1,"YAVAPAI REGIONAL MEDICAL CENTER-EAST CAMPUS, YAVAPAI, PRESCOTT VALLEY",34.621743,-112.32176,AZ
1,"MERCY GILBERT MEDICAL CENTER, MARICOPA, GILBERT",33.319722,-111.76078,AZ
1,"BANNER GATEWAY MEDICAL CENTER, MARICOPA, GILBERT",33.36344,-111.75093,AZ
1,"SCOTTSDALE THOMPSON PEAK MEDICAL CENTER, MARICOPA, SCOTTSDALE",33.697268,-111.88321,AZ
1,"PHOENIX VA MEDICAL CENTER, MARICOPA, PHOENIX",33.505251,-112.0703,AZ
1,"MARICOPA MEDICAL CENTER, MARICOPA, PHOENIX",33.466393,-112.0008,AZ
1,"VA S. ARIZONA HEALTHCARE SYSTEM, PIMA, TUCSON",31.970131,-111.890713,AZ
1,"VA NORTHERN ARIZONA HEALTHCARE SYSTEM, YAVAPAI, PRESCOTT",34.706724,-112.39773,AZ
1,"WICKENBURG COMMUNITY HOSPITAL, MARICOPA, WICKENBURG",33.961122,-112.76952,AZ
1,"BENSON HOSPITAL, COCHISE, BENSON",32.010164,-110.3182,AZ
1,"NORTHERN COCHISE COMMUNITY HOSPITAL, COCHISE, WILLCOX",32.356537,-109.88461,AZ
1,"COCHISE REGIONAL HOSPITAL, COCHISE, DOUGLAS",31.382775,-109.55035,AZ
1,"PAGE HOSPITAL, COCONINO, PAGE",36.726377,-111.4284,AZ
1,"HOPI HEALTH CARE CENTER, NAVAJO, POLACCA",35.835642,-110.36628,AZ
1,"SAGE MEMORIAL HOSPITAL, APACHE, GANADO",35.665344,-109.65344,AZ
1,"LITTLE COLORADO MEDICAL CENTER, NAVAJO, WINSLOW",35.258309,-110.53128,AZ
1,"COPPER QUEEN COMMUNITY HOSPITAL, COCHISE, BISBEE",31.406229,-109.8958,AZ
1,"CARONDELET HOLY CROSS HOSPITAL, SANTA CRUZ, NOGALES",31.37737,-110.9264,AZ
1,"COBRE VALLEY REGIONAL MEDICAL CENTER, GILA, GLOBE",33.53457,-110.75681,AZ
1,"WHITE MOUNTAIN REGIONAL MEDICAL CENTER, APACHE, SPRINGERVILLE",34.094597,-109.22291,AZ
1,"LA PAZ REGIONAL HOSPITAL, LA PAZ, PARKER",34.100704,-114.30462,AZ
1,"PHOENIX INDIAN MEDICAL CENTER, MARICOPA, PHOENIX",33.503742,-112.03235,AZ
1,"SILOAM SPRINGS REGIONAL HOSPITAL, BENTON, SILOAM SPRINGS",36.179905,-94.50208,AZ
1,"JOHNSON REGIONAL MEDICAL CENTER, JOHNSON, CLARKSVILLE",35.490105,-93.4851,AZ
1,"WASHINGTON REGIONAL MED CTR AT NORTH HILLS, WASHINGTON, FAYETTEVILLE",36.107078,-94.11592,AZ
1,"ST VINCENT INFIRMARY MEDICAL CENTER, PULASKI, LITTLE ROCK",34.752391,-92.3355,AZ
1,"MERCY HOSPITAL NORTHWEST ARKANSAS, BENTON, ROGERS",36.306616,-94.14622,AZ
1,"CHAMBERS MEMORIAL HOSPITAL, YELL, DANVILLE",35.044021,-93.4195,AZ
1,"WHITE COUNTY MEDICAL CENTER, WHITE, SEARCY",35.239022,-91.73776,AZ
1,"MENA REGIONAL HEALTH SYSTEM, POLK, MENA",34.588479,-94.21567,AZ
1,"ST VINCENT INFIRMARY MEDICAL CENTER, PULASKI, LITTLE ROCK",34.752391,-92.3355,AZ
1,"NORTH ARKANSAS REGIONAL MEDICAL CENTER, BOONE, HARRISON",36.236984,-93.09345,AZ
1,"SPARKS MEDICAL CENTER - VAN BUREN, CRAWFORD, VAN BUREN",35.456536,-94.34581,AZ
1,"FORREST CITY MEDICAL CENTER, SAINT FRANCIS, FORREST CITY",35.010683,-90.78048,AZ
1,"ST BERNARDS MEDICAL CENTER, CRAIGHEAD, JONESBORO",35.844795,-90.68443,AZ
1,"NORTHWEST MEDICAL CENTER-SPRINGDALE, WASHINGTON, SPRINGDALE",36.182407,-94.1082,AZ
1,"MERCY HOSPITAL HOT SPRINGS, GARLAND, HOT SPRINGS",34.581374,-93.099403,AZ
1,"BAXTER REGIONAL MEDICAL CENTER, BAXTER, MOUNTAIN HOME",36.329026,-92.35781,AZ
1,"CONWAY REGIONAL MEDICAL CENTER, FAULKNER, CONWAY",35.074617,-92.444426,AZ
1,"BAPTIST HEALTH MEDICAL CENTER NORTH LITTLE ROCK, PULASKI, NORTH LITTLE ROCK",34.777238,-92.17913,AZ
1,"ARKANSAS METHODIST MEDICAL CENTER, GREENE, PARAGOULD",36.065711,-90.5102,AZ
1,"ST MARYS REGIONAL MEDICAL CENTER, POPE, RUSSELLVILLE",35.278429,-93.13682,AZ
1,"FIVE RIVERS MEDICAL CENTER, RANDOLPH, POCAHONTAS",36.304912,-91.0141,AZ
1,"OUACHITA COUNTY MEDICAL CENTER, OUACHITA, CAMDEN",33.578096,-92.81368,AZ
1,"DREW MEMORIAL HOSPITAL, DREW, MONTICELLO",33.62086,-91.76272,AZ
1,"SPARKS REGIONAL MEDICAL CENTER, SEBASTIAN, FORT SMITH",35.38619,-94.409114,AZ
1,"ST EDWARD MERCY MEDICAL CENTER, SEBASTIAN, FORT SMITH",35.191046,-94.23816,AR
1,"MAGNOLIA HOSPITAL, COLUMBIA, MAGNOLIA",33.242571,-93.22996,AR
1,"GREAT RIVER MEDICAL CENTER, MISSISSIPPI, BLYTHEVILLE",35.925991,-89.91767,AR
1,"JEFFERSON REGIONAL MEDICAL CENTER, JEFFERSON, PINE BLUFF",34.189398,-92.04495,AR
1,"BAPTIST HEALTH MEDICAL CENTER-STUTTGART, ARKANSAS, STUTTGART",34.479852,-91.53854,AR
1,"NORTH METRO MEDICAL CENTER, PULASKI, JACKSONVILLE",34.879419,-92.12244,AR
1,"BAPTIST HEALTH MEDICAL CENTER-HOT SPRINGS COUNTY, HOT SPRING, MALVERN",34.364093,-92.8146,AR
1,"NATIONAL PARK MEDICAL CENTER, GARLAND, HOT SPRINGS",34.506487,-93.01941,AR
1,"UNITY HEALTH HARRIS MEDICAL CENTER, JACKSON, NEWPORT",35.586065,-91.24695,AR
1,"SALINE MEMORIAL HOSPITAL, SALINE, BENTON",34.564734,-92.59562,AR
1,"HELENA REGIONAL MEDICAL CENTER, PHILLIPS, HELENA",34.485028,-90.64636,AR
1,"MEDICAL CENTER SOUTH ARKANSAS, UNION, EL DORADO",33.198024,-92.52891,AR
1,"WASHINGTON REGIONAL MED CTR AT NORTH HILLS, WASHINGTON, FAYETTEVILLE",36.107078,-94.11592,AR
1,"ST VINCENT INFIRMARY MEDICAL CENTER, PULASKI, LITTLE ROCK",34.752391,-92.3355,AR
1,"ST VINCENT INFIRMARY MEDICAL CENTER, PULASKI, LITTLE ROCK",34.752391,-92.3355,AR
1,"ST BERNARDS MEDICAL CENTER, CRAIGHEAD, JONESBORO",35.844795,-90.68443,AR
1,"WHITE RIVER MEDICAL CENTER, INDEPENDENCE, BATESVILLE",35.734617,-91.534303,AR
1,"NATIONAL PARK MEDICAL CENTER, GARLAND, HOT SPRINGS",34.506487,-93.01941,AR
1,"ARKANSAS HEART HOSPITAL, LLC, PULASKI, LITTLE ROCK",34.749723,-92.41345,AR
1,"ST VINCENT MEDICAL CENTER/NORTH, PULASKI, SHERWOOD",34.855962,-92.21997,AR
1,"ARKANSAS SURGICAL HOSPITAL, PULASKI, NO LITTLE ROCK",34.813269,-92.30229,AR
1,"WASHINGTON REGIONAL MED CTR AT NORTH HILLS, WASHINGTON, FAYETTEVILLE",36.107078,-94.11592,AR
1,"WADLEY REGIONAL MEDICAL CENTER AT HOPE, HEMPSTEAD, HOPE",33.657969,-93.59486,AR
1,"NORTH LOGAN MERCY HOSPITAL, LOGAN, PARIS",35.293281,-93.72139,AR
1,"RIVER VALLEY MEDICAL CENTER, YELL, DARDANELLE",35.199221,-93.17973,AR
1,"MERCY HOSPITAL TURNER MEMORIAL, FRANKLIN, OZARK",35.549469,-93.81819,AR
1,"EUREKA SPRINGS HOSPITAL, LLC, CARROLL, EUREKA SPRINGS",36.392122,-93.7476,AR
1,"ST EDWARD HEALTH FACILITIES OF SCOTT COUNTY, SCOTT, WALDRON",34.907335,-94.13624,AR
1,"COMMUNITY MEDICAL CENTER IZARD COUNTY, IZARD, CALICO ROCK",36.132092,-92.16638,AR
1,"CROSSRIDGE COMMUNITY HOSPITAL, CROSS, WYNNE",35.229779,-90.83237,AR
1,"MCGEHEE HOSPITAL, DESHA, MCGEHEE",33.628723,-91.38236,AR
1,"LAWRENCE MEMORIAL HOSPITAL, LAWRENCE, WALNUT RIDGE",36.068015,-90.94429,AR
1,"STONE COUNTY MEDICAL CENTER, STONE, MOUNTAIN VIEW",35.863114,-92.11108,AR
1,"HOWARD MEMORIAL HOSPITAL, HOWARD, NASHVILLE",33.985613,-93.85214,AR
1,"BAPTIST HEALTH MEDICAL CENTER HEBER SPINGS, CLEBURNE, HEBER SPRINGS",35.489516,-92.02327,AR
1,"OZARK HEALTH, VAN BUREN, CLINTON",35.586064,-92.48355,AR
1,"DEWITT HOSPITAL & NURSING HOME, INC, ARKANSAS, DE WITT",34.283347,-91.32515,AR
1,"SOUTH MISSISSISSPI COUNTY REGIONAL MEDICAL CENTER, MISSISSIPPI, OSCEOLA",35.696385,-90.02631,AR
1,"DALLAS COUNTY MEDICAL CENTER, DALLAS, FORDYCE",33.834201,-92.43421,AR
1,"MERCY HOSPITAL BOONEVILLE, LOGAN, BOONEVILLE",35.105966,-93.97531,AR
1,"DE QUEEN MEDICAL CENTER, INC, SEVIER, DE QUEEN",34.038226,-94.33597,AR
1,"LITTLE RIVER MEMORIAL HOSPITAL, LITTLE RIVER, ASHDOWN",33.675597,-94.13465,AR
1,"BAPTIST HEALTH MEDICAL CENTER-ARKADELPHIA, CLARK, ARKADELPHIA",34.111837,-93.05585,AR
1,"FULTON COUNTY HOSPITAL, FULTON, SALEM",36.359511,-91.83303,AR
1,"ASHLEY COUNTY MEDICAL CENTER, ASHLEY, CROSSETT",33.125032,-91.97037,AR
1,"ST VINCENT MORRILTON, CONWAY, MORRILTON",35.156491,-92.75858,AR
1,"DELTA MEMORIAL HOSPITAL, DESHA, DUMAS",33.900515,-91.50041,AR
1,"BRADLEY COUNTY MEDICAL CENTER, BRADLEY, WARREN",33.608004,-92.08101,AR
1,"CHICOT MEMORIAL MEDICAL CENTER, CHICOT, LAKE VILLAGE",33.351501,-91.27133,AR
1,"MERCY HOSPITAL BERRYVILLE, CARROLL, BERRYVILLE",36.350821,-93.56324,AR
1,"PIGGOTT COMMUNITY HOSPITAL, CLAY, PIGGOTT",36.393325,-90.20277,AR
1,"OZARKS COMMUNITY HOSPITAL OF GRAVETTE, BENTON, GRAVETTE",36.412233,-94.45226,AR
1,"ARKANSAS CHILDREN'S HOSPITAL, PULASKI, LITTLE ROCK",34.739224,-92.27765,AR
1,"ST ROSE HOSPITAL, ALAMEDA, HAYWARD",37.635582,-122.10418,AR
1,"ST JOSEPH HOSPITAL, HUMBOLDT, EUREKA",40.793739,-124.16102,AR
1,"MILLS-PENINSULA MEDICAL CENTER, SAN MATEO, BURLINGAME",37.574936,-122.36332,AR
1,"CALIFORNIA PACIFIC MEDICAL CTR-DAVIES CAMPUS HOSP, SAN FRANCISCO, SAN FRANCISCO",37.770937,-122.44276,AR
1,"QUEEN OF THE VALLEY MEDICAL CENTER, NAPA, NAPA",38.337243,-122.30027,AR
1,"ST HELENA HOSPITAL, NAPA, SAINT HELENA",38.511241,-122.45695,AR
1,"SUTTER AMADOR HOSPITAL, AMADOR, JACKSON",38.359772,-120.75324,AR
1,"MERCY GENERAL HOSPITAL, SACRAMENTO, SACRAMENTO",38.568855,-121.44099,AR
1,"PACIFIC ALLIANCE MEDICAL CENTER, LOS ANGELES, LOS ANGELES",34.061611,-118.23944,AR
1,"GLENDALE MEM HOSPITAL & HLTH CENTER, LOS ANGELES, GLENDALE",34.135259,-118.25948,AR
1,"COMMUNITY REGIONAL MEDICAL CENTER, FRESNO, FRESNO",36.746375,-119.639658,AR
1,"HOLLYWOOD PRESBYTERIAN MEDICAL CENTER, LOS ANGELES, LOS ANGELES",34.111208,-118.28842,AR
1,"OAK VALLEY DISTRICT HOSPITAL, STANISLAUS, OAKDALE",37.776528,-120.84756,AR
1,"KAISER FOUNDATION HOSPITAL AND REHAB CENTER, SOLANO, VALLEJO",38.152068,-122.25074,AR
1,"PARKVIEW COMMUNITY HOSPITAL MEDICAL CENTER, RIVERSIDE, RIVERSIDE",33.91355,-117.46052,AR
1,"WHITE MEMORIAL MEDICAL CENTER, LOS ANGELES, LOS ANGELES",34.050411,-118.21195,AR
1,"SAINT FRANCIS MEDICAL CENTER, LOS ANGELES, LYNWOOD",33.924642,-118.20186,AR
1,"MARIAN REGIONAL MEDICAL CENTER, SANTA BARBARA, SANTA MARIA",34.900809,-120.34876,AR
1,"SUTTER GENERAL HOSPITAL, SACRAMENTO, SACRAMENTO",38.571661,-121.46827,AR
1,"LOMPOC VALLEY MEDICAL CENTER, SANTA BARBARA, LOMPOC",34.639682,-120.4471,AR
1,"SANTA MONICA - UCLA MED CTR & ORTHOPAEDIC HOSPITAL, LOS ANGELES, SANTA MONICA",34.026959,-118.47432,AR
1,"SAN MATEO MEDICAL CENTER, SAN MATEO, SAN MATEO",37.539686,-122.30266,AR
1,"PALOMAR HEALTH DOWNTOWN CAMPUS, SAN DIEGO, ESCONDIDO",33.106862,-117.07077,AR
1,"NORTHRIDGE HOSPITAL MEDICAL CENTER, LOS ANGELES, NORTHRIDGE",34.235055,-118.51766,AR
1,"DOCTORS HOSPITAL OF MANTECA, SAN JOAQUIN, MANTECA",37.812815,-121.21416,CA
1,"ADVENTIST MEDICAL CENTER, KINGS, HANFORD",36.327063,-119.6451,CA
1,"DAMERON HOSPITAL, SAN JOAQUIN, STOCKTON",37.954823,-121.30735,CA
1,"USC VERDUGO HILLS HOSPITAL, LOS ANGELES, GLENDALE",33.786594,-118.298662,CA
1,"REGIONAL MEDICAL CENTER OF SAN JOSE, SANTA CLARA, SAN JOSE",37.34964,-121.8544,CA
1,"VALLEY PRESBYTERIAN HOSPITAL, LOS ANGELES, VAN NUYS",34.201491,-118.49376,CA
1,"WOODLAND MEMORIAL HOSPITAL, YOLO, WOODLAND",38.697238,-121.80944,CA
1,"TRI-CITY MEDICAL CENTER, SAN DIEGO, OCEANSIDE",33.195354,-117.28232,CA
1,"ST BERNARDINE MEDICAL CENTER, SAN BERNARDINO, SAN BERNARDINO",34.14856,-117.26298,CA
1,"NOVATO COMMUNITY HOSPITAL, MARIN, NOVATO",38.117065,-122.56316,CA
1,"SAN GABRIEL VALLEY MEDICAL CENTER, LOS ANGELES, SAN GABRIEL",34.089059,-118.0951,CA
1,"RIDEOUT MEMORIAL HOSPITAL, YUBA, MARYSVILLE",39.15973,-121.53735,CA
1,"SOUTHERN CALIFORNIA HOSPITAL AT HOLLYWOOD, LOS ANGELES, HOLLYWOOD",34.098859,-118.32745,CA
1,"PETALUMA VALLEY HOSPITAL, SONOMA, PETALUMA",38.243299,-122.6069,CA
1,"KAISER FOUNDATION HOSPITAL - PANORAMA CITY, LOS ANGELES, PANORAMA CITY",34.223753,-118.44322,CA
1,"HOLLYWOOD PRESBYTERIAN MEDICAL CENTER, LOS ANGELES, LOS ANGELES",34.111208,-118.28842,CA
1,"KAISER FOUNDATION HOSPITAL - DOWNEY, LOS ANGELES, DOWNEY",33.92018,-118.14291,CA
1,"KAISER FOUNDATION HOSPITAL FONTANA, SAN BERNARDINO, FONTANA",34.088911,-117.45213,CA
1,"COMMUNITY HOSPITAL OF THE MONTEREY PENINSULA, MONTEREY, MONTEREY",36.586193,-121.88667,CA
1,"CALIFORNIA HOSPITAL MEDICAL CENTER LA, LOS ANGELES, LOS ANGELES",34.038993,-118.26516,CA
1,"SIERRA NEVADA MEMORIAL HOSPITAL, NEVADA, GRASS VALLEY",39.202725,-121.02076,CA
1,"SAINT FRANCIS MEMORIAL HOSPITAL, SAN FRANCISCO, SAN FRANCISCO",37.792778,-122.42188,CA
1,"SANTA CLARA VALLEY MEDICAL CENTER, SANTA CLARA, SAN JOSE",37.316983,-121.93555,CA
1,"ENCINO HOSPITAL MEDICAL CENTER, LOS ANGELES, ENCINO",34.155625,-118.48925,CA
1,"VENTURA COUNTY MEDICAL CENTER, VENTURA, VENTURA",34.268736,-119.2249,CA
1,"SAN JOAQUIN GENERAL HOSPITAL, SAN JOAQUIN, FRENCH CAMP",37.882742,-121.27978,CA
1,"ST JUDE MEDICAL CENTER, ORANGE, FULLERTON",33.903164,-117.91224,CA
1,"PRESBYTERIAN INTERCOMMUNITY HOSPITAL, LOS ANGELES, WHITTIER",33.967562,-118.03384,CA
1,"SANTA ROSA MEMORIAL HOSPITAL, SONOMA, SANTA ROSA",38.438161,-122.67419,CA
1,"EMANUEL MEDICAL CENTER, STANISLAUS, TURLOCK",37.523901,-120.8516,CA
1,"JOHN MUIR MEDICAL CENTER - WALNUT CREEK CAMPUS, CONTRA COSTA, WALNUT CREEK",37.91878,-122.02618,CA
1,"GEORGE L MEE MEMORIAL HOSPITAL, MONTEREY, KING CITY",36.21106,-121.05986,CA
1,"ST MARY MEDICAL CENTER, LOS ANGELES, LONG BEACH",33.781011,-118.19197,CA
1,"ADVENTIST MEDICAL CENTER - REEDLEY, FRESNO, REEDLEY",36.608675,-119.43761,CA
1,"WATSONVILLE COMMUNITY HOSPITAL, SANTA CRUZ, WATSONVILLE",36.922902,-121.77224,CA
1,"WASHINGTON HOSPITAL, ALAMEDA, FREMONT",37.527237,-121.9679,CA
1,"ADVENTIST MEDICAL CENTER, KINGS, HANFORD",36.327063,-119.6451,CA
1,"SEQUOIA HOSPITAL, SAN MATEO, REDWOOD CITY",37.444879,-122.26253,CA
1,"PALMDALE REGIONAL MEDICAL CENTER, LOS ANGELES, PALMDALE",34.561207,-118.0375,CA
1,"GLENDORA COMMUNITY HOSPITAL, LOS ANGELES, GLENDORA",34.119245,-117.8548,CA
1,"ALAMEDA HOSPITAL, ALAMEDA, ALAMEDA",37.769528,-122.25937,CA
1,"SHARP CHULA VISTA MEDICAL CENTER, SAN DIEGO, CHULA VISTA",32.608799,-117.0607,CA
1,"HOAG MEMORIAL HOSPITAL PRESBYTERIAN, ORANGE, NEWPORT BEACH",33.619221,-117.93087,CA
1,"FEATHER RIVER HOSPITAL, BUTTE, PARADISE",39.750422,-121.61026,CA
1,"AHMC ANAHEIM REGIONAL MEDICAL CENTER, ORANGE, ANAHEIM",33.844814,-117.95381,CA
1,"CALIFORNIA PACIFIC MEDICAL CTR - ST. LUKE'S CAMPUS, SAN FRANCISCO, SAN FRANCISCO",37.74873,-122.41545,CA
1,"GARDEN GROVE HOSPITAL & MEDICAL CENTER, ORANGE, GARDEN GROVE",33.763033,-117.9355,CA
1,"POMONA VALLEY HOSPITAL MEDICAL CENTER, LOS ANGELES, POMONA",34.080143,-117.73861,CA
1,"FRENCH HOSPITAL MEDICAL CENTER, SAN LUIS OBISPO, SAN LUIS OBISPO",35.262548,-120.65196,CA
1,"SHARP CORONADO HOSPITAL AND HLTHCR CTR, SAN DIEGO, CORONADO",32.682727,-117.17441,CA
1,"PROVIDENCE SAINT JOSEPH MEDICAL CTR, LOS ANGELES, BURBANK",34.166906,-118.34366,CA
1,"SIMI VALLEY HOSPITAL & HEALTH CARE SERVICES, VENTURA, SIMI VALLEY",34.265003,-118.77177,CA
1,"METHODIST HOSPITAL OF SOUTHERN CA, LOS ANGELES, ARCADIA",34.134057,-118.02662,CA
1,"GLENDALE ADVENTIST MEDICAL CENTER, LOS ANGELES, GLENDALE",34.156674,-118.22937,CA
1,"DOMINICAN HOSPITAL, SANTA CRUZ, SANTA CRUZ",37.010322,-121.98523,CA
1,"DESERT REGIONAL MEDICAL CENTER, RIVERSIDE, PALM SPRINGS",33.842984,-116.54344,CA
1,"ARROWHEAD REGIONAL MEDICAL CENTER, SAN BERNARDINO, COLTON",34.061931,-117.31995,CA
1,"NATIVIDAD MEDICAL CENTER, MONTEREY, SALINAS",36.709717,-121.63997,CA
1,"MARSHALL MEDICAL CENTER, EL DORADO, PLACERVILLE",38.724682,-120.79533,CA
1,"GOOD SAMARITAN HOSPITAL, KERN, BAKERSFIELD",35.487491,-119.00896,CA
1,"FRESNO VA MEDICAL CENTER - VA CENTRAL CALIFORNIA, FRESNO, FRESNO",36.767299,-119.765,CA
1,"SIERRA VIEW MEDICAL CENTER, TULARE, PORTERVILLE",36.055121,-119.01595,CA
1,"RONALD REAGAN U C L A MEDICAL CENTER, LOS ANGELES, LOS ANGELES",33.786594,-118.298662,CA
1,"REDLANDS COMMUNITY HOSPITAL, SAN BERNARDINO, REDLANDS",34.034714,-117.17305,CA
1,"CONTRA COSTA REGIONAL MEDICAL CENTER, CONTRA COSTA, MARTINEZ",37.998912,-122.11501,CA
1,"PROVIDENCE HOLY CROSS MEDICAL CENTER, LOS ANGELES, MISSION HILLS",33.786594,-118.298662,CA
1,"HI-DESERT MEDICAL CENTER, SAN BERNARDINO, JOSHUA TREE",34.175926,-116.29137,CA
1,"VA LONG BEACH HEALTHCARE SYSTEM, LOS ANGELES, LONG BEACH",33.776094,-118.11848,CA
1,"MERCY MEDICAL CENTER REDDING, SHASTA, REDDING",40.56816,-122.41519,CA
1,"ALHAMBRA HOSPITAL MEDICAL CENTER, LOS ANGELES, ALHAMBRA",34.090409,-118.127,CA
1,"VALLEYCARE MEDICAL CENTER, ALAMEDA, PLEASANTON",37.68973,-121.89244,CA
1,"SETON MEDICAL CENTER, SAN MATEO, DALY CITY",37.682583,-122.48209,CA
1,"SANTA MONICA - UCLA MED CTR & ORTHOPAEDIC HOSPITAL, LOS ANGELES, SANTA MONICA",34.026959,-118.47432,CA
1,"SUTTER SANTA ROSA REGIONAL HOSPITAL, SONOMA, SANTA ROSA",38.480494,-122.74976,CA
1,"RIVERSIDE COUNTY REGIONAL MEDICAL CENTER, RIVERSIDE, MORENO VALLEY",33.922823,-117.16837,CA
1,"BAKERSFIELD MEMORIAL HOSPITAL, KERN, BAKERSFIELD",35.381408,-119.01935,CA
1,"HAZEL HAWKINS MEMORIAL HOSPITAL, SAN BENITO, HOLLISTER",36.862243,-121.38006,CA
1,"BARSTOW COMMUNITY HOSPITAL, SAN BERNARDINO, BARSTOW",34.894181,-117.03636,CA
1,"ST MARY MEDICAL CENTER, SAN BERNARDINO, APPLE VALLEY",34.538622,-117.17729,CA
1,"UKIAH VALLEY MEDICAL CENTER, MENDOCINO, UKIAH",39.154946,-123.20088,CA
1,"ALTA BATES SUMMIT MEDICAL CENTER - ALTA BATES CAMP, ALAMEDA, BERKELEY",37.856926,-122.25084,CA
1,"EL CAMINO HOSPITAL, SANTA CLARA, MOUNTAIN VIEW",37.380207,-122.08787,CA
1,"SUTTER ROSEVILLE MEDICAL CENTER, PLACER, ROSEVILLE",38.731976,-121.2531,CA
1,"VA N CALIFORNIA HEALTHCARE SYSTEM, SACRAMENTO, MATHER",38.558073,-121.28737,CA
1,"SUTTER TRACY COMMUNITY HOSPITAL, SAN JOAQUIN, TRACY",37.728417,-121.42399,CA
1,"KERN MEDICAL CENTER, KERN, BAKERSFIELD",35.396411,-118.92268,CA
1,"PALO ALTO VA MEDICAL CENTER, SANTA CLARA, PALO ALTO",37.397823,-122.16605,CA
1,"HIGHLAND HOSPITAL, ALAMEDA, OAKLAND",37.799727,-122.21211,CA
1,"SCRIPPS MEMORIAL HOSPITAL LA JOLLA, SAN DIEGO, LA JOLLA",32.838761,-117.26159,CA
1,"LOMA LINDA UNIVERSITY MEDICAL CENTER, SAN BERNARDINO, LOMA LINDA",34.050764,-117.25327,CA
1,"CORONA REGIONAL MEDICAL CENTER, RIVERSIDE, CORONA",33.866555,-117.59167,CA
1,"SALINAS VALLEY MEMORIAL HOSPITAL, MONTEREY, SALINAS",36.665879,-121.65497,CA
1,"SONORA REGIONAL MEDICAL CENTER, TUOLUMNE, SONORA",37.995238,-120.3437,CA
1,"LODI MEMORIAL HOSPITAL, SAN JOAQUIN, LODI",38.12463,-121.25039,CA
1,"PIONEERS MEMORIAL HEALTHCARE DISTRICT, IMPERIAL, BRAWLEY",32.98975,-115.50475,CA
1,"ST JOSEPH HOSPITAL, ORANGE, ORANGE",33.787266,-117.87494,CA
1,"BEVERLY HOSPITAL, LOS ANGELES, MONTEBELLO",34.014212,-118.11358,CA
1,"TORRANCE MEMORIAL MEDICAL CENTER, LOS ANGELES, TORRANCE",33.786594,-118.298662,CA
1,"BARTON MEMORIAL HOSPITAL, EL DORADO, SOUTH LAKE TAHOE",38.908741,-120.00992,CA
1,"PROVIDENCE LITTLE COMPANY OF MARY MED CTR TORRANCE, LOS ANGELES, TORRANCE",33.840264,-118.35587,CA
1,"GOLETA VALLEY COTTAGE HOSPITAL, SANTA BARBARA, SANTA BARBARA",34.443529,-119.80297,CA
1,"TULARE REGIONAL MEDICAL CENTER, TULARE, TULARE",36.201451,-119.34994,CA
1,"MARIN GENERAL HOSPITAL, MARIN, GREENBRAE",37.950069,-122.54284,CA
1,"NORTHBAY MEDICAL CENTER, SOLANO, FAIRFIELD",38.269582,-122.03701,CA
1,"WHITE MEMORIAL MEDICAL CENTER, LOS ANGELES, LOS ANGELES",34.050411,-118.21195,CA
1,"TORRANCE MEMORIAL MEDICAL CENTER, LOS ANGELES, TORRANCE",33.786594,-118.298662,CA
1,"PACIFICA HOSPITAL OF THE VALLEY, LOS ANGELES, SUN VALLEY",34.224089,-118.37563,CA
1,"GOOD SAMARITAN HOSPITAL, SANTA CLARA, SAN JOSE",37.256743,-121.92312,CA
1,"CITRUS VALLEY MEDICAL CENTER-IC CAMPUS, LOS ANGELES, COVINA",34.085809,-117.88694,CA
1,"HEMET VALLEY MEDICAL CENTER, RIVERSIDE, HEMET",33.73542,-116.97401,CA
1,"PIH HOSPITAL - DOWNEY, LOS ANGELES, DOWNEY",33.942289,-118.12901,CA
1,"VENTURA COUNTY MEDICAL CENTER, VENTURA, VENTURA",34.268736,-119.2249,CA
1,"SANTA BARBARA COTTAGE HOSPITAL, SANTA BARBARA, SANTA BARBARA",34.262834,-119.848555,CA
1,"COALINGA REGIONAL MEDICAL CENTER, FRESNO, COALINGA",36.194736,-120.30865,CA
1,"CHINESE HOSPITAL, SAN FRANCISCO, SAN FRANCISCO",37.801878,-122.41018,CA
1,"KAISER FOUNDATION HOSPITAL - SOUTH BAY, LOS ANGELES, HARBOR CITY",33.797317,-118.30065,CA
1,"MERCY HOSPITAL OF FOLSOM, SACRAMENTO, FOLSOM",38.672127,-121.15783,CA
1,"SUTTER COAST HOSPITAL, DEL NORTE, CRESCENT CITY",41.782681,-124.16703,CA
1,"PALO VERDE HOSPITAL, RIVERSIDE, BLYTHE",33.628333,-114.61905,CA
1,"SCRIPPS MEMORIAL HOSPITAL LA JOLLA, SAN DIEGO, LA JOLLA",32.838761,-117.26159,CA
1,"KAISER FOUNDATION HOSPITAL - SACRAMENTO, SACRAMENTO, SACRAMENTO",38.594205,-121.40726,CA
1,"WEST ANAHEIM MEDICAL CENTER, ORANGE, ANAHEIM",33.818165,-117.97304,CA
1,"COLUSA REGIONAL MEDICAL CENTER, COLUSA, COLUSA",39.254875,-122.04572,CA
1,"FALLBROOK HOSPITAL DISTRICT, SAN DIEGO, FALLBROOK",33.380359,-117.20605,CA
1,"HUNTINGTON MEMORIAL HOSPITAL, LOS ANGELES, PASADENA",33.786594,-118.298662,CA
1,"STANFORD HOSPITAL, SANTA CLARA, STANFORD",37.427039,-122.16496,CA
1,"MERCY MEDICAL CENTER, MERCED, MERCED",37.294648,-120.47474,CA
1,"UCSF MEDICAL CENTER, SAN FRANCISCO, SAN FRANCISCO",37.76313,-122.458582,CA
1,"BAKERSFIELD MEMORIAL HOSPITAL, KERN, BAKERSFIELD",35.381408,-119.01935,CA
1,"CALIFORNIA PACIFIC MEDICAL CTR-DAVIES CAMPUS HOSP, SAN FRANCISCO, SAN FRANCISCO",37.770937,-122.44276,CA
1,"DOCTORS MEDICAL CENTER, STANISLAUS, MODESTO",37.671778,-121.01249,CA
1,"MEMORIAL HOSPITAL OF GARDENA, LOS ANGELES, GARDENA",33.891265,-118.2975,CA
1,"GOOD SAMARITAN HOSPITAL, LOS ANGELES, LOS ANGELES",34.052561,-118.26434,CA
1,"WEST HILLS HOSPITAL & MEDICAL CENTER, LOS ANGELES, WEST HILLS",34.197737,-118.64797,CA
1,"LONG BEACH MEMORIAL MEDICAL CENTER, LOS ANGELES, LONG BEACH",33.801767,-118.1858,CA
1,"EDEN MEDICAL CENTER, ALAMEDA, CASTRO VALLEY",37.702063,-122.07934,CA
1,"CLOVIS COMMUNITY MEDICAL CENTER, FRESNO, CLOVIS",36.840057,-119.66107,CA
1,"JOHN MUIR MEDICAL CENTER - CONCORD CAMPUS, CONTRA COSTA, CONCORD",37.986321,-122.03988,CA
1,"SUTTER AUBURN FAITH HOSPITAL, PLACER, AUBURN",38.909605,-121.07971,CA
1,"SAINT VINCENT MEDICAL CENTER, LOS ANGELES, LOS ANGELES",34.061911,-118.27687,CA
1,"SCRIPPS MEMORIAL HOSPITAL - ENCINITAS, SAN DIEGO, ENCINITAS",33.053092,-117.26855,CA
1,"SIERRA VISTA REGIONAL MEDICAL CENTER, SAN LUIS OBISPO, SAN LUIS OBISPO",35.277189,-120.70305,CA
1,"KAISER FOUNDATION HOSPITAL, MARIN, SAN RAFAEL",38.019022,-122.54589,CA
1,"WASHINGTON HOSPITAL, ALAMEDA, FREMONT",37.527237,-121.9679,CA
1,"KAISER FOUNDATION HOSPITAL - SAN DIEGO, SAN DIEGO, SAN DIEGO",32.794449,-117.07221,CA
1,"MERCY SAN JUAN MEDICAL CENTER, SACRAMENTO, CARMICHAEL",38.628371,-121.32702,CA
1,"VICTOR VALLEY GLOBAL MEDICAL CENTER, SAN BERNARDINO, VICTORVILLE",34.489466,-117.35321,CA
1,"SUTTER DELTA MEDICAL CENTER, CONTRA COSTA, ANTIOCH",37.991571,-121.80207,CA
1,"HUNTINGTON BEACH HOSPITAL, ORANGE, HUNTINGTON BEACH",33.725167,-118.00509,CA
1,"MEMORIAL HOSPITAL LOS BANOS, MERCED, LOS BANOS",37.048385,-120.86983,CA
1,"JOHN F KENNEDY MEMORIAL HOSPITAL, RIVERSIDE, INDIO",33.715271,-116.235,CA
1,"SUTTER DAVIS HOSPITAL, YOLO, DAVIS",38.549256,-121.73655,CA
1,"KAISER FOUNDATION HOSPITAL - REDWOOD CITY, SAN MATEO, REDWOOD CITY",37.483504,-122.2144,CA
1,"COLLEGE HOSPITAL COSTA MESA, ORANGE, COSTA MESA",33.647028,-117.91506,CA
1,"LANTERMAN DEVELOPMENTAL CENTER, LOS ANGELES, POMONA",34.06521,-117.77932,CA
1,"SIERRA VIEW MEDICAL CENTER, TULARE, PORTERVILLE",36.055121,-119.01595,CA
1,"SONOMA DEVELOPMENTAL CENTER, SONOMA, ELDRIDGE",38.347913,-122.51753,CA
1,"FAIRVIEW DEVELOPMENTAL CENTER, ORANGE, COSTA MESA",33.677224,-117.90863,CA
1,"LOS ROBLES HOSPITAL & MEDICAL CENTER, VENTURA, THOUSAND OAKS",34.208837,-118.87348,CA
1,"LOS ALAMITOS MEDICAL CENTER, ORANGE, LOS ALAMITOS",33.794028,-118.07218,CA
1,"MOTION PICTURE & TELEVISION HOSPITAL, LOS ANGELES, WOODLAND HILLS",34.158214,-118.60061,CA
1,"MEMORIAL  MEDICAL CENTER, STANISLAUS, MODESTO",37.673513,-120.95566,CA
1,"KAISER FOUNDATION HOSPITAL - WEST LA, LOS ANGELES, LOS ANGELES",34.03056,-118.39804,CA
1,"MISSION HOSPITAL REGIONAL MED CENTER, ORANGE, MISSION VIEJO",33.611272,-117.66681,CA
1,"MADERA COMMUNITY HOSPITAL, MADERA, MADERA",36.914819,-120.15817,CA
1,"FOUNTAIN VALLEY REGIONAL HOSPITAL & MEDICAL CENTER, ORANGE, FOUNTAIN VALLEY",33.708618,-117.95629,CA
1,"EISENHOWER MEDICAL CENTER, RIVERSIDE, RANCHO MIRAGE",33.762944,-116.42249,CA
1,"GARDENS REGIONAL HOSPITAL AND MEDICAL CENTER, LOS ANGELES, HAWAIIAN GARDENS",33.828565,-118.07364,CA
1,"LA PALMA INTERCOMMUNITY HOSPITAL, ORANGE, LA PALMA",33.849327,-118.04395,CA
1,"LAKEWOOD REGIONAL MEDICAL CENTER, LOS ANGELES, LAKEWOOD",33.851965,-118.1468,CA
1,"CHINO VALLEY MEDICAL CENTER, SAN BERNARDINO, CHINO",34.015963,-117.68737,CA
1,"SAN DIMAS COMMUNITY HOSPITAL, LOS ANGELES, SAN DIMAS",34.103341,-117.81814,CA
1,"PLACENTIA LINDA HOSPITAL, ORANGE, PLACENTIA",33.883314,-117.85446,CA
1,"METHODIST HOSPITAL OF SACRAMENTO, SACRAMENTO, SACRAMENTO",38.477508,-121.44561,CA
1,"GLENDORA COMMUNITY HOSPITAL, LOS ANGELES, GLENDORA",34.119245,-117.8548,CA
1,"UNIVERSITY OF CALIFORNIA DAVIS MEDICAL CENTER, SACRAMENTO, SACRAMENTO",38.551106,-121.45996,CA
1,"SADDLEBACK MEMORIAL MEDICAL CENTER, ORANGE, LAGUNA HILLS",33.602823,-117.71295,CA
1,"KAISER FOUNDATION HOSPITAL-SAN JOSE, SANTA CLARA, SAN JOSE",37.232244,-121.79092,CA
1,"DELANO REGIONAL MEDICAL CENTER, KERN, DELANO",35.774967,-119.23371,CA
1,"KAISER FOUNDATION HOSPITAL - ORANGE COUNTY - ANAHE, ORANGE, ANAHEIM",33.835465,-117.87362,CA
1,"ST JOHNS PLEASANT VALLEY HOSPITAL, VENTURA, CAMARILLO",34.231754,-119.05258,CA
1,"HENRY MAYO NEWHALL  HOSPITAL, LOS ANGELES, VALENCIA",34.406519,-118.56214,CA
1,"CEDARS-SINAI MEDICAL CENTER, LOS ANGELES, LOS ANGELES",34.073759,-118.37376,CA
1,"TWIN CITIES COMMUNITY HOSPITAL, SAN LUIS OBISPO, TEMPLETON",35.54464,-120.72428,CA
1,"POMERADO HOSPITAL, SAN DIEGO, POWAY",32.973645,-117.03701,CA
1,"EAST LOS ANGELES DOCTORS HOSPITAL, LOS ANGELES, LOS ANGELES",34.023039,-118.20231,CA
1,"EAST LOS ANGELES DOCTORS HOSPITAL, LOS ANGELES, LOS ANGELES",34.023039,-118.20231,CA
1,"LAGUNA HONDA HOSPITAL & REHABILITATION CENTER, SAN FRANCISCO, SAN FRANCISCO",37.743381,-122.48578,CA
1,"METHODIST HOSPITAL OF SACRAMENTO, SACRAMENTO, SACRAMENTO",38.477508,-121.44561,CA
1,"KAISER FOUNDATION HOSPITAL - WOODLAND HILLS, LOS ANGELES, WOODLAND HILLS",34.176238,-118.61992,CA
1,"FOUNTAIN VALLEY REGIONAL HOSPITAL & MEDICAL CENTER, ORANGE, FOUNTAIN VALLEY",33.708618,-117.95629,CA
1,"MENIFEE VALLEY MEDICAL CENTER, RIVERSIDE, SUN CITY",33.742936,-117.17432,CA
1,"KAISER FOUNDATION HOSPITAL, RIVERSIDE, RIVERSIDE, RIVERSIDE",33.921765,-117.48812,CA
1,"SAINT LOUISE REGIONAL HOSPITAL, SANTA CLARA, GILROY",37.016943,-121.56581,CA
1,"SAN RAMON REGIONAL MEDICAL CTR, CONTRA COSTA, SAN RAMON",37.75735,-121.95213,CA
1,"SUTTER SANTA ROSA REGIONAL HOSPITAL, SONOMA, SANTA ROSA",38.480494,-122.74976,CA
1,"WHITE MEMORIAL MEDICAL CENTER, LOS ANGELES, LOS ANGELES",34.050411,-118.21195,CA
1,"MERCY MEDICAL CENTER REDDING, SHASTA, REDDING",40.56816,-122.41519,CA
1,"SOUTHWEST HEALTHCARE SYSTEM, RIVERSIDE, MURRIETA",33.568617,-117.25264,CA
1,"KAISER FOUNDATION HOSPITAL - PANORAMA CITY, LOS ANGELES, PANORAMA CITY",34.223753,-118.44322,CA
1,"SAINT AGNES MEDICAL CENTER, FRESNO, FRESNO",36.825582,-119.76358,CA
1,"KAISER FOUNDATION HOSPITAL - FRESNO, FRESNO, FRESNO",36.865587,-119.75917,CA
1,"DOMINICAN HOSPITAL, SANTA CRUZ, SANTA CRUZ",37.010322,-121.98523,CA
1,"KAISER FOUNDATION HOSPITAL - DOWNEY, LOS ANGELES, DOWNEY",33.92018,-118.14291,CA
1,"KAISER FOUNDATION HOSPITAL - BALDWIN PARK, LOS ANGELES, BALDWIN PARK",34.087108,-117.96966,CA
1,"GOOD SAMARITAN HOSPITAL, KERN, BAKERSFIELD",35.487491,-119.00896,CA
1,"MEMORIAL  MEDICAL CENTER, STANISLAUS, MODESTO",37.673513,-120.95566,CA
1,"COMMUNITY HOSPITAL OF LONG BEACH, LOS ANGELES, LONG BEACH",33.783467,-118.15182,CA
1,"KAISER FOUNDATION HOSPITAL - FRESNO, FRESNO, FRESNO",36.865587,-119.75917,CA
1,"WHITTIER HOSPITAL MEDICAL CENTER, LOS ANGELES, WHITTIER",33.945413,-118.03362,CA
1,"MONTEREY PARK HOSPITAL, LOS ANGELES, MONTEREY PARK",34.048207,-118.14161,CA
1,"MONTEREY PARK HOSPITAL, LOS ANGELES, MONTEREY PARK",34.048207,-118.14161,CA
1,"GREATER EL MONTE COMMUNITY HOSPITAL, LOS ANGELES, SOUTH EL MONTE",34.05051,-118.04834,CA
1,"CENTINELA HOSPITAL MEDICAL CENTER, LOS ANGELES, INGLEWOOD",33.955913,-118.35868,CA
1,"MARINA DEL REY HOSPITAL, LOS ANGELES, MARINA DEL REY",33.992411,-118.46531,CA
1,"OLYMPIA MEDICAL CENTER, LOS ANGELES, LOS ANGELES",34.07036,-118.34926,CA
1,"ANAHEIM GLOBAL MEDICAL CENTER, ORANGE, ANAHEIM",33.835665,-117.90807,CA
1,"CHAPMAN GLOBAL MEDICAL CENTER, ORANGE, ORANGE",33.792687,-117.79975,CA
1,"ORANGE COUNTY GLOBAL MEDICAL CENTER, ORANGE, SANTA ANA",33.762117,-117.81828,CA
1,"SOUTH COAST GLOBAL MEDICAL CENTER, ORANGE, SANTA ANA",33.724167,-117.90623,CA
1,"KAISER FOUNDATION HOSPITAL MANTECA, SAN JOAQUIN, MANTECA",37.782332,-121.23578,CA
1,"OLYMPIA MEDICAL CENTER, LOS ANGELES, LOS ANGELES",34.07036,-118.34926,CA
1,"MENLO PARK SURGICAL HOSPITAL, SAN MATEO, MENLO PARK",37.451688,-122.18385,CA
1,"SHERMAN OAKS HOSPITAL, LOS ANGELES, SHERMAN OAKS",34.152513,-118.46396,CA
1,"KAISER FOUNDATION HOSPITAL - SAN DIEGO, SAN DIEGO, SAN DIEGO",32.794449,-117.07221,CA
1,"MONTCLAIR HOSPITAL MEDICAL CENTER, SAN BERNARDINO, MONTCLAIR",34.07041,-117.69938,CA
1,"KAISER FOUNDATION HOSPITAL - ANTIOCH, CONTRA COSTA, ANTIOCH",37.920852,-121.723919,CA
1,"PROVIDENCE TARZANA MEDICAL CENTER, LOS ANGELES, TARZANA",34.164255,-118.54472,CA
1,"SILVER LAKE MEDICAL CENTER, LOS ANGELES, LOS ANGELES",34.07851,-118.26596,CA
1,"MERCY MEDICAL CENTER REDDING, SHASTA, REDDING",40.56816,-122.41519,CA
1,"RIVERSIDE COUNTY REGIONAL MEDICAL CENTER, RIVERSIDE, MORENO VALLEY",33.922823,-117.16837,CA
1,"SUTTER SURGICAL HOSPITAL - NORTH VALLEY, SUTTER, YUBA CITY",39.114138,-121.6196,CA
1,"KAISER FOUNDATION HOSPITAL - VACAVILLE, SOLANO, VACAVILLE",38.380528,-121.99192,CA
1,"HOAG ORTHOPEDIC INSTITUTE, ORANGE, IRVINE",33.659639,-117.73948,CA
1,"LOMA LINDA UNIVERSITY MEDICAL CENTER-MURRIETA, RIVERSIDE, MURRIETA",33.571185,-117.15362,CA
1,"COAST PLAZA HOSPITAL, LOS ANGELES, NORWALK",33.906914,-118.08339,CA
1,"SUTTER ROSEVILLE MEDICAL CENTER, PLACER, ROSEVILLE",38.731976,-121.2531,CA
1,"SAN LEANDRO HOSPITAL, ALAMEDA, SAN LEANDRO",37.703427,-122.128,CA
1,"TEMECULA VALLEY HOSPITAL, RIVERSIDE, TEMECULA",33.495343,-117.07657,CA
1,"LONG BEACH MEMORIAL MEDICAL CENTER, LOS ANGELES, LONG BEACH",33.801767,-118.1858,CA
1,"KAISER FOUNDATION HOSPITAL - SAN LEANDRO, ALAMEDA, SAN LEANDRO",37.722279,-122.15702,CA
1,"VA SAN DIEGO HEALTHCARE SYSTEM, SAN DIEGO, SAN DIEGO",32.871846,-117.229119,CA
1,"LOMA LINDA VA MEDICAL CENTER, SAN BERNARDINO, LOMA LINDA",34.839964,-115.967051,CA
1,"VA GREATER LOS ANGELES HEALTHCARE SYSTEM, LOS ANGELES, WEST LOS ANGELES",33.786594,-118.298662,CA
1,"EASTERN PLUMAS HOSPITAL - PORTOLA CAMPUS, PLUMAS, PORTOLA",39.801047,-120.48359,CA
1,"TEHACHAPI HOSPITAL, KERN, TEHACHAPI",35.132673,-118.50781,CA
1,"SOUTHERN INYO HOSPITAL, INYO, LONE PINE",36.589514,-118.07367,CA
1,"MAMMOTH HOSPITAL, MONO, MAMMOTH LAKES",37.621587,-118.86279,CA
1,"JOHN C FREMONT HEALTHCARE DISTRICT, MARIPOSA, MARIPOSA",37.505484,-119.92527,CA
1,"MAYERS MEMORIAL HOSPITAL, SHASTA, FALL RIVER MILLS",41.056097,-121.49021,CA
1,"GLENN MEDICAL CENTER, GLENN, WILLOWS",39.499754,-122.20773,CA
1,"CATALINA ISLAND MEDICAL CENTER, LOS ANGELES, AVALON",33.368642,-118.40835,CA
1,"SURPRISE VALLEY COMMUNITY HOSPITAL, MODOC, CEDARVILLE",41.527226,-120.13826,CA
1,"JEROLD PHELPS COMMUNITY HOSPITAL, HUMBOLDT, GARBERVILLE",40.0985,-123.80654,CA
1,"SAN FRANCISCO VA MEDICAL CENTER, SAN FRANCISCO, SAN FRANCISCO",37.778729,-122.49265,CA
1,"FRANK R HOWARD MEMORIAL HOSPITAL, MENDOCINO, WILLITS",39.451662,-123.37285,CA
1,"ORCHARD HOSPITAL, BUTTE, GRIDLEY",39.35217,-121.71129,CA
1,"MOUNTAINS COMMUNITY HOSPITAL, SAN BERNARDINO, LAKE ARROWHEAD",34.25629,-117.19132,CA
1,"KERN VALLEY HEALTHCARE DISTRICT, KERN, LAKE ISABELLA",35.617148,-118.45299,CA
1,"TRINITY HOSPITAL, TRINITY, WEAVERVILLE",40.734483,-122.93982,CA
1,"FAIRCHILD MEDICAL CENTER, SISKIYOU, YREKA",41.749249,-122.64479,CA
1,"ST HELENA HOSPITAL-CLEARLAKE, LAKE, CLEARLAKE",38.956206,-122.63523,CA
1,"REDWOOD MEMORIAL HOSPITAL, HUMBOLDT, FORTUNA",40.583488,-124.14367,CA
1,"MERCY MEDICAL CENTER MT SHASTA, SISKIYOU, MOUNT SHASTA",41.317771,-122.31207,CA
1,"BANNER LASSEN MEDICAL CENTER, LASSEN, SUSANVILLE",40.474951,-120.67685,CA
1,"HEALDSBURG DISTRICT HOSPITAL, SONOMA, HEALDSBURG",38.614088,-122.87626,CA
1,"COLORADO RIVER MEDICAL CENTER, SAN BERNARDINO, NEEDLES",34.808718,-114.62664,CA
1,"NORTHERN INYO HOSPITAL, INYO, BISHOP",37.282192,-118.38717,CA
1,"MENDOCINO COAST DISTRICT HOSPITAL, MENDOCINO, FORT BRAGG",39.43695,-123.76087,CA
1,"PLUMAS DISTRICT HOSPITAL, PLUMAS, QUINCY",39.957324,-120.98366,CA
1,"SENECA DISTRICT HOSPITAL, PLUMAS, CHESTER",40.289788,-121.23263,CA
1,"TAHOE FOREST HOSPITAL, NEVADA, TRUCKEE",39.339574,-120.22805,CA
1,"SUTTER LAKESIDE HOSPITAL, LAKE, LAKEPORT",39.051698,-122.92071,CA
1,"MODOC MEDICAL CENTER, MODOC, ALTURAS",41.439363,-120.58771,CA
1,"SANTA YNEZ VALLEY COTTAGE HOSPITAL, SANTA BARBARA, SOLVANG",34.608938,-120.13838,CA
1,"MARK TWAIN MEDICAL CENTER, CALAVERAS, SAN ANDREAS",38.192823,-120.64285,CA
1,"OJAI VALLEY COMMUNITY HOSPITAL, VENTURA, OJAI",34.456957,-119.25307,CA
1,"BEAR VALLEY COMMUNITY HOSPITAL, SAN BERNARDINO, BIG BEAR LAKE",34.241295,-116.90328,CA
1,"HOLLYWOOD PRESBYTERIAN MEDICAL CENTER, LOS ANGELES, LOS ANGELES",34.111208,-118.28842,CA
1,"PALO ALTO VA MEDICAL CENTER, SANTA CLARA, PALO ALTO",37.397823,-122.16605,CA
1,"LONG BEACH MEMORIAL MEDICAL CENTER, LOS ANGELES, LONG BEACH",33.801767,-118.1858,CA
1,"NORTH COLORADO MEDICAL CENTER, WELD, GREELEY",40.421845,-104.69175,CA
1,"LONGMONT UNITED HOSPITAL, BOULDER, LONGMONT",40.171484,-105.10033,CA
1,"PLATTE VALLEY MEDICAL CENTER, ADAMS, BRIGHTON",39.973251,-104.82407,CA
1,"MONTROSE MEMORIAL HOSPITAL, MONTROSE, MONTROSE",38.436409,-107.8625,CA
1,"SAN LUIS VALLEY HEALTH, ALAMOSA, ALAMOSA",37.471802,-105.83471,CA
1,"LUTHERAN MEDICAL CENTER, JEFFERSON, WHEAT RIDGE",39.774341,-105.10036,CA
1,"POUDRE VALLEY HOSPITAL, LARIMER, FORT COLLINS",40.606962,-105.05106,CA
1,"DENVER HEALTH MEDICAL CENTER, DENVER, DENVER",39.734686,-105.01966,CA
1,"CENTURA HEALTH-ST MARY CORWIN MEDICAL CENTER, PUEBLO, PUEBLO",38.197344,-104.6331,CA
1,"MERCY REGIONAL MEDICAL CENTER, LA PLATA, DURANGO",37.295888,-107.84945,CA
1,"PRESBYTERIAN ST LUKES MEDICAL CENTER, DENVER, DENVER",39.731237,-104.97133,CA
1,"CENTURA HEALTH-ST ANTHONY HOSPITAL, JEFFERSON, LAKEWOOD",39.688278,-105.14558,CA
1,"CENTURA HEALTH-ST THOMAS MORE HOSPITAL, FREMONT, CANON CITY",38.464212,-105.27973,CA
1,"PARKVIEW MEDICAL CENTER INC, PUEBLO, PUEBLO",38.281052,-104.62567,CA
1,"UNIVERSITY COLO HEALTH MEMORIAL HOSPITAL CENTRAL, EL PASO, COLORADO SPRINGS",38.851493,-104.77856,CA
1,"ST MARYS  MEDICAL CENTER, MESA, GRAND JUNCTION",39.017876,-108.481354,CA
1,"UNIVERSITY OF COLORADO HOSPITAL ANSCHUTZ INPATIENT, ADAMS, AURORA",39.746736,-104.838361,CA
1,"BOULDER COMMUNITY FOOTHILLS HOSPITAL, BOULDER, BOULDER",40.039784,-105.27938,CA
1,"PRESBYTERIAN ST LUKES MEDICAL CENTER, DENVER, DENVER",39.731237,-104.97133,CA
1,"MCKEE MEDICAL CENTER, LARIMER, LOVELAND",40.435645,-105.08726,CA
1,"CENTURA HEALTH-PENROSE ST FRANCIS HEALTH SERVICES, EL PASO, COLORADO SPRINGS",38.873692,-104.81869,CA
1,"ROSE MEDICAL CENTER, DENVER, DENVER",39.734387,-104.91678,CA
1,"ARKANSAS VALLEY REGIONAL MEDICAL CENTER, OTERO, LA JUNTA",37.995879,-103.54001,CA
1,"KEEFE MEMORIAL HOSPITAL, CHEYENNE, CHEYENNE WELLS",38.846982,-102.37913,CA
1,"COLORADO PLAINS MEDICAL CENTER, MORGAN, FORT MORGAN",40.226357,-103.80625,CA
1,"YAMPA VALLEY MEDICAL CENTER, ROUTT, STEAMBOAT SPRINGS",40.502772,-106.87521,CA
1,"COMMUNITY HOSPITAL, MESA, GRAND JUNCTION",39.072831,-108.55,CA
1,"ROSE MEDICAL CENTER, DENVER, DENVER",39.734387,-104.91678,CA
1,"CENTURA HEALTH-PORTER ADVENTIST HOSPITAL, DENVER, DENVER",39.679437,-104.96473,CA
1,"NORTH SUBURBAN MEDICAL CENTER, ADAMS, THORNTON",39.859585,-104.95943,CA
1,"DELTA COUNTY MEMORIAL HOSPITAL, DELTA, DELTA",38.733901,-108.08219,CA
1,"VALLEY VIEW HOSPITAL ASSOCIATION, GARFIELD, GLENWOOD SPRINGS",39.533318,-107.32107,CA
1,"STERLING REGIONAL MEDCENTER, LOGAN, STERLING",40.633845,-103.21574,CA
1,"COMMUNITY HOSPITAL, MESA, GRAND JUNCTION",39.072831,-108.55,CA
1,"VAIL VALLEY MEDICAL CENTER, EAGLE, VAIL",39.634566,-106.37077,CA
1,"MEDICAL CENTER OF AURORA, THE, ARAPAHOE, AURORA",39.698387,-104.83956,CA
1,"CENTURA HEALTH-AVISTA ADVENTIST HOSPITAL, BOULDER, LOUISVILLE",39.963322,-105.15053,CA
1,"NATIONAL JEWISH HEALTH, DENVER, DENVER",39.731237,-104.95243,CA
1,"SKY RIDGE MEDICAL CENTER, DOUGLAS, LONE TREE",39.543478,-104.89644,CA
1,"CENTURA HEALTH-LITTLETON ADVENTIST HOSPITAL, ARAPAHOE, LITTLETON",39.582604,-104.95834,CA
1,"PARKER ADVENTIST HOSPITAL, DOUGLAS, PARKER",39.523171,-104.70607,CA
1,"GOOD SAMARITAN MEDICAL CENTER, BOULDER, LAFAYETTE",40.002156,-105.10036,CA
1,"MERCY REGIONAL MEDICAL CENTER, LA PLATA, DURANGO",37.295888,-107.84945,CA
1,"ST ANTHONY SUMMIT MEDICAL CENTER, SUMMIT, FRISCO",39.532506,-106.14029,CA
1,"MCKEE MEDICAL CENTER, LARIMER, LOVELAND",40.435645,-105.08726,CA
1,"CENTURA HEALTH-ST ANTHONY HOSPITAL, JEFFERSON, LAKEWOOD",39.688278,-105.14558,CA
1,"CASTLE ROCK ADVENTIST HOSPITAL, DOUGLAS, CASTLE ROCK",39.380857,-104.89947,CA
1,"WEISBROD MEMORIAL COUNTY HOSPITAL, KIOWA, EADS",38.467553,-102.80439,CA
1,"RIO GRANDE HOSPITAL, RIO GRANDE, DEL NORTE",37.731981,-106.39774,CA
1,"COLORADO CANYONS HOSPITAL AND MEDICAL CENTER, MESA, FRUITA",39.159971,-108.72071,CA
1,"EAST MORGAN COUNTY HOSPITAL, MORGAN, BRUSH",40.23045,-103.60824,CA
1,"HAXTUN HOSPITAL DISTRICT, PHILLIPS, HAXTUN",40.593911,-102.58831,CA
1,"MELISSA MEMORIAL HOSPITAL, PHILLIPS, HOLYOKE",40.582954,-102.30451,CA
1,"LINCOLN COMMUNITY HOSPITAL, LINCOLN, HUGO",39.020889,-103.48045,CA
1,"RANGELY DISTRICT HOSPITAL, RIO BLANCO, RANGELY",40.011447,-108.77528,CA
1,"SAN LUIS VALLEY HEALTH CONEJOS COUNTY HOSPITAL, CONEJOS, LA JARA",37.274108,-106.05178,CA
1,"WRAY COMMUNITY DISTRICT HOSPITAL, YUMA, WRAY",40.064734,-102.21336,CA
1,"SEDGWICK COUNTY MEMORIAL HOSPITAL, SEDGWICK, JULESBURG",40.916929,-102.21858,CA
1,"SOUTHEAST COLORADO HOSPITAL, BACA, SPRINGFIELD",37.409787,-102.61726,CA
1,"ESTES PARK MEDICAL CENTER, LARIMER, ESTES PARK",40.370415,-105.51722,CA
1,"KIT CARSON COUNTY MEMORIAL HOSPITAL, KIT CARSON, BURLINGTON",39.3124,-102.25094,CA
1,"MEMORIAL HOSPITAL, THE, MOFFAT, CRAIG",40.566113,-107.60818,CO
1,"YUMA DISTRICT HOSPITAL, YUMA, YUMA",40.169249,-102.69005,CO
1,"SPANISH PEAKS REGIONAL HEALTH CENTER, HUERFANO, WALSENBURG",37.621071,-104.80456,CO
1,"GRAND RIVER MEDICAL CENTER, GARFIELD, RIFLE",39.603225,-107.89755,CO
1,"MIDDLE PARK MEDICAL CENTER, GRAND, KREMMLING",40.14711,-106.42854,CO
1,"ST VINCENT HOSPITAL GENERAL DISTRICT, LAKE, LEADVILLE",39.231776,-106.31399,CO
1,"GUNNISON VALLEY HOSPITAL, GUNNISON, GUNNISON",38.464132,-106.95776,CO
1,"MT SAN RAFAEL HOSPITAL, LAS ANIMAS, TRINIDAD",37.191882,-104.47809,CO
1,"HEART OF THE ROCKIES REGIONAL MEDICAL CENTER, CHAFFEE, SALIDA",38.533464,-106.03468,CO
1,"PROWERS MEDICAL CENTER, PROWERS, LAMAR",38.08759,-102.61855,CO
1,"ASPEN VALLEY HOSPITAL, PITKIN, ASPEN",39.196857,-106.8191,CO
1,"PIONEERS MEDICAL CENTER, RIO BLANCO, MEEKER",40.042797,-107.92158,CO
1,"PIKES PEAK REGIONAL HOSPITAL, TELLER, WOODLAND PARK",38.996004,-105.06335,CO
1,"SOUTHWEST MEMORIAL HOSPITAL, MONTEZUMA, CORTEZ",37.344985,-108.60355,CO
1,"PAGOSA SPRINGS MEDICAL CENTER, ARCHULETA, PAGOSA SPRINGS",37.241179,-107.11287,CO
1,"UNIVERSITY OF COLORADO HOSPITAL ANSCHUTZ INPATIENT, ADAMS, AURORA",39.746736,-104.838361,CO
1,"CHRISTIANA CARE HEALTH SERVICES, INC., NEW CASTLE, NEWARK",39.564499,-75.597047,CO
1,"ST FRANCIS HOSPITAL, NEW CASTLE, WILMINGTON",39.745377,-75.58251,CO
1,"BAYHEALTH - KENT GENERAL HOSPITAL, KENT, DOVER",39.16426,-75.51163,CO
1,"NANTICOKE MEMORIAL HOSPITAL, SUSSEX, SEAFORD",38.643248,-75.61102,CO
1,"BEEBE MEDICAL CENTER, SUSSEX, LEWES",38.746207,-75.16282,CO
1,"BAYHEALTH - MILFORD MEMORIAL HOSPITAL, SUSSEX, MILFORD",38.922806,-75.41449,CO
1,"ST FRANCIS HOSPITAL, NEW CASTLE, WILMINGTON",39.745377,-75.58251,CO
1,"GEORGE WASHINGTON UNIV HOSPITAL, DISTRICT OF COLUMBIA, WASHINGTON",38.900394,-77.05126,CO
1,"HOWARD UNIVERSITY HOSPITAL, DISTRICT OF COLUMBIA, WASHINGTON",38.918011,-77.020398,CO
1,"MEDSTAR GEORGETOWN UNIVERSITY HOSPITAL, DISTRICT OF COLUMBIA, WASHINGTON",38.913961,-77.07179,CO
1,"SIBLEY MEMORIAL HOSPITAL, DISTRICT OF COLUMBIA, WASHINGTON",38.94081,-77.08723,CO
1,"PROVIDENCE HOSPITAL, DISTRICT OF COLUMBIA, WASHINGTON",38.937478,-76.99125,CO
1,"UNITED MEDICAL CENTER, DISTRICT OF COLUMBIA, WASHINGTON",38.836145,-77.00058,CO
1,"MEDSTAR WASHINGTON HOSPITAL CENTER, DISTRICT OF COLUMBIA, WASHINGTON",38.933311,-77.02929,CO
1,"WASHINGTON DC VA MEDICAL CENTER, DISTRICT OF COLUMBIA, WASHINGTON",38.893311,-77.014647,CO
1,"MEDSTAR WASHINGTON HOSPITAL CENTER, DISTRICT OF COLUMBIA, WASHINGTON",38.933311,-77.02929,CO
1,"UF HEALTH JACKSONVILLE, DUVAL, JACKSONVILLE",30.354588,-81.69113,CO
1,"BETHESDA HOSPITAL EAST, PALM BEACH, BOYNTON BEACH",26.524549,-80.06321,CO
1,"ORLANDO HEALTH, ORANGE, ORLANDO",28.51483,-81.36054,CO
1,"FLORIDA HOSPITAL, ORANGE, ORLANDO",28.557579,-81.35244,CO
1,"BAPTIST HOSPITAL OF MIAMI, MIAMI-DADE, MIAMI",25.653431,-80.35999,CO
1,"UNIVERSITY OF MIAMI HOSPITAL, MIAMI-DADE, MIAMI",25.786326,-80.2029,CO
1,"TWIN CITIES HOSPITAL, OKALOOSA, NICEVILLE",30.500901,-86.45335,CO
1,"FLORIDA HOSPITAL NORTH PINELLAS, PINELLAS, TARPON SPRINGS",28.149691,-82.75339,CO
1,"FLORIDA HOSPITAL WATERMAN, LAKE, TAVARES",28.799017,-81.73184,CO
1,"MUNROE REGIONAL MEDICAL CENTER, MARION, OCALA",29.166186,-82.17027,CO
1,"MORTON PLANT NORTH BAY HOSPITAL, PASCO, NEW PORT RICHEY",28.237582,-82.72818,CO
1,"ST ANTHONYS HOSPITAL, PINELLAS, SAINT PETERSBURG",27.741306,-82.64349,CO
1,"BAPTIST MEDICAL CENTER - BEACHES, DUVAL, JACKSONVILLE BEACH",30.284641,-81.39844,CO
1,"FLORIDA HOSPITAL FLAGLER, FLAGLER, PALM COAST",29.499591,-81.22328,CO
1,"BARTOW REGIONAL MEDICAL CENTER, POLK, BARTOW",27.955426,-81.951673,CO
1,"NORTH OKALOOSA MEDICAL CENTER, OKALOOSA, CRESTVIEW",30.757479,-86.51088,CO
1,"SANTA ROSA MEDICAL CENTER, SANTA ROSA, MILTON",30.70969,-87.01098,CO
1,"HOMESTEAD HOSPITAL, MIAMI-DADE, HOMESTEAD",25.487988,-80.42692,CO
1,"PALMS OF PASADENA HOSPITAL, PINELLAS, SAINT PETERSBURG",27.756505,-82.71764,CO
1,"MORTON PLANT HOSPITAL, PINELLAS, CLEARWATER",27.944631,-82.78702,CO
1,"TAMPA GENERAL HOSPITAL, HILLSBOROUGH, TAMPA",27.936799,-82.46911,CO
1,"LAKESIDE MEDICAL CENTER, PALM BEACH, BELLE GLADE",26.685125,-80.66279,CO
1,"AVENTURA HOSPITAL AND MEDICAL CENTER, MIAMI-DADE, AVENTURA",25.962069,-80.14465,CO
1,"SOUTH FLORIDA BAPTIST HOSPITAL, HILLSBOROUGH, PLANT CITY",28.016971,-82.128584,CO
1,"ED FRASER MEMORIAL HOSPITAL, BAKER, MACCLENNY",30.267664,-82.12457,CO
1,"TALLAHASSEE MEMORIAL HOSPITAL, LEON, TALLAHASSEE",30.531677,-84.16049,CO
1,"HEART OF FLORIDA REGIONAL MEDICAL CENTER, POLK, DAVENPORT",28.223014,-81.63131,CO
1,"BAPTIST MEDICAL CENTER - NASSAU, NASSAU, FERNANDINA BEACH",30.641487,-81.46092,CO
1,"JACKSON HOSPITAL, JACKSON, MARIANNA",30.804698,-85.2206,CO
1,"LOWER KEYS MEDICAL CENTER, MONROE, KEY WEST",24.567593,-81.7566,CO
1,"MAYO CLINIC, DUVAL, JACKSONVILLE",30.284511,-81.47043,CO
1,"SOUTH MIAMI HOSPITAL, MIAMI-DADE, SOUTH MIAMI",25.702929,-80.29642,CO
1,"SHANDS LAKE SHORE REGIONAL MEDICAL CENTER, COLUMBIA, LAKE CITY",30.216073,-82.6396,CO
1,"LAKELAND REGIONAL MEDICAL CENTER, POLK, LAKELAND",28.071564,-81.95802,CO
1,"CENTRAL FLORIDA REGIONAL HOSPITAL, SEMINOLE, SANFORD",28.803979,-81.28761,CO
1,"DOCTORS HOSPITAL OF SARASOTA, SARASOTA, SARASOTA",27.285142,-82.47363,CO
1,"PLANTATION GENERAL HOSPITAL, BROWARD, PLANTATION",26.113664,-80.22376,CO
1,"BOCA RATON REGIONAL HOSPITAL, PALM BEACH, BOCA RATON",26.344955,-80.11226,CO
1,"FLORIDA HOSPITAL TAMPA, HILLSBOROUGH, TAMPA",28.077994,-82.44989,CO
1,"DESOTO MEMORIAL HOSPITAL, DE SOTO, ARCADIA",27.186146,-81.809939,CO
1,"PALM BEACH GARDENS MEDICAL CENTER, PALM BEACH, PALM BEACH GARDENS",26.839588,-80.08824,CO
1,"CAPE CANAVERAL HOSPITAL, BREVARD, COCOA BEACH",28.306726,-80.686159,CO
1,"MEMORIAL HOSPITAL JACKSONVILLE, DUVAL, JACKSONVILLE",30.28374,-81.58359,CO
1,"ST PETERSBURG GENERAL HOSPITAL, PINELLAS, SAINT PETERSBURG",27.788637,-82.72244,CO
1,"SOUTH MIAMI HOSPITAL, MIAMI-DADE, SOUTH MIAMI",25.702929,-80.29642,CO
1,"CORAL GABLES HOSPITAL, MIAMI-DADE, CORAL GABLES",25.753927,-80.27034,DE
1,"PALMETTO GENERAL HOSPITAL, MIAMI-DADE, HIALEAH",25.887983,-80.33284,DE
1,"NORTHWEST MEDICAL CENTER, BROWARD, MARGATE",26.251909,-80.21016,DE
1,"MEDICAL CENTER OF TRINITY, PASCO, TRINITY",28.209833,-82.66973,DE
1,"HOLY CROSS HOSPITAL, BROWARD, FORT LAUDERDALE",26.191111,-80.10846,DE
1,"NORTH FLORIDA REGIONAL MEDICAL CENTER, ALACHUA, GAINESVILLE",29.676006,-82.36889,DE
1,"MEMORIAL HOSPITAL OF TAMPA, HILLSBOROUGH, TAMPA",27.943549,-82.50656,DE
1,"KENDALL REGIONAL MEDICAL CENTER, MIAMI-DADE, MIAMI",25.733204,-80.41197,DC
1,"BAYFRONT HEALTH DADE CITY, PASCO, DADE CITY",28.346914,-82.20293,DC
1,"OCALA REGIONAL MEDICAL CENTER, MARION, OCALA",29.187178,-82.112278,DC
1,"BLAKE MEDICAL CENTER, MANATEE, BRADENTON",27.488866,-82.62737,DC
1,"SEBASTIAN RIVER MEDICAL CENTER, INDIAN RIVER, SEBASTIAN",27.709049,-80.572557,DC
1,"GULF COAST MEDICAL CENTER LEE MEM HEALTH SYSTEM, LEE, FORT MYERS",26.501582,-81.82841,DC
1,"FORT WALTON BEACH MEDICAL CENTER, OKALOOSA, FORT WALTON BEACH",30.447248,-86.62113,DC
1,"UNIVERSITY HOSPITAL AND MEDICAL CENTER, BROWARD, TAMARAC",26.211122,-80.2631,DC
1,"ORANGE PARK MEDICAL CENTER, CLAY, ORANGE PARK",30.160965,-81.72916,DC
1,"WESTSIDE REGIONAL MEDICAL CENTER, BROWARD, PLANTATION",26.110631,-80.27469,FL
1,"MEMORIAL HOSPITAL PEMBROKE, BROWARD, PEMBROKE PINES",26.023567,-80.23851,FL
1,"WEST FLORIDA HOSPITAL, ESCAMBIA, PENSACOLA",30.527195,-87.21485,FL
1,"PUTNAM COMMUNITY MEDICAL CENTER, PUTNAM, PALATKA",29.666218,-81.67401,FL
1,"WEST PALM HOSPITAL, PALM BEACH, WEST PALM BEACH",26.750991,-80.07296,FL
1,"BAYFRONT HEALTH PORT CHARLOTTE, CHARLOTTE, PORT CHARLOTTE",26.993876,-82.09821,FL
1,"NORTHSIDE HOSPITAL, PINELLAS, SAINT PETERSBURG",27.815953,-82.72865,FL
1,"UNIVERSITY OF MIAMI HOSPITAL, MIAMI-DADE, MIAMI",25.786326,-80.2029,FL
1,"GULF COAST REGIONAL MEDICAL CENTER, BAY, PANAMA CITY",30.195424,-85.66458,FL
1,"BRANDON REGIONAL HOSPITAL, HILLSBOROUGH, BRANDON",27.911201,-82.2948,FL
1,"CAPE CORAL HOSPITAL, LEE, CAPE CORAL",26.63075,-81.95251,FL
1,"LAWNWOOD REGIONAL MEDICAL CENTER & HEART INSTITUTE, SAINT LUCIE, FORT PIERCE",27.448016,-80.33644,FL
1,"LARGO MEDICAL CENTER, PINELLAS, LARGO",27.916149,-82.80122,FL
1,"SEVEN RIVERS REGIONAL MEDICAL CENTER, CITRUS, CRYSTAL RIVER",28.95138,-82.61213,FL
1,"RAULERSON HOSPITAL, OKEECHOBEE, OKEECHOBEE",27.39171,-80.87555,FL
1,"JUPITER MEDICAL CENTER, PALM BEACH, JUPITER",26.928035,-80.11803,FL
1,"TALLAHASSEE MEMORIAL HOSPITAL, LEON, TALLAHASSEE",30.531677,-84.16049,FL
1,"TAMPA COMMUNITY HOSPITAL, HILLSBOROUGH, TAMPA",28.005446,-82.57776,FL
1,"REGIONAL MEDICAL CENTER BAYONET POINT, PASCO, HUDSON",28.372441,-82.66603,FL
1,"DELRAY MEDICAL CENTER, PALM BEACH, DELRAY BEACH",26.458152,-80.1356,FL
1,"SOUTH BAY HOSPITAL, HILLSBOROUGH, SUN CITY CENTER",27.713353,-82.35965,FL
1,"ST LUCIE MEDICAL CENTER, SAINT LUCIE, PORT SAINT LUCIE",27.291694,-80.29691,FL
1,"OAK HILL HOSPITAL, HERNANDO, BROOKSVILLE",28.555346,-82.53601,FL
1,"MEASE COUNTRYSIDE HOSPITAL, PINELLAS, SAFETY HARBOR",28.005639,-82.69511,FL
1,"GULF BREEZE HOSPITAL, SANTA ROSA, GULF BREEZE",30.375469,-87.09013,FL
1,"ENGLEWOOD COMMUNITY HOSPITAL, SARASOTA, ENGLEWOOD",26.974858,-82.3665,FL
1,"WEST BOCA MEDICAL CENTER, PALM BEACH, BOCA RATON",26.348354,-80.21841,FL
1,"PALMS WEST HOSPITAL, PALM BEACH, LOXAHATCHEE",26.751094,-80.30156,FL
1,"WELLINGTON REGIONAL MEDICAL CENTER, PALM BEACH, WELLINGTON",26.65671,-80.25377,FL
1,"BROWARD HEALTH CORAL SPRINGS, BROWARD, CORAL SPRINGS",26.272608,-80.25589,FL
1,"DOUGLAS GARDENS HOSPITAL, MIAMI-DADE, MIAMI",25.817325,-80.19046,FL
1,"MEMORIAL HOSPITAL WEST, BROWARD, PEMBROKE PINES",26.018418,-80.34798,FL
1,"WESTCHESTER GENERAL HOSPITAL, MIAMI-DADE, MIAMI",25.739011,-80.30685,FL
1,"MEMORIAL HOSPITAL MIRAMAR, BROWARD, MIRAMAR",26.006373,-80.40212,FL
1,"PHYSICIANS REGIONAL MEDICAL CENTER - PINE RIDGE, COLLIER, NAPLES",26.256551,-81.7186,FL
1,"GOOD SAMARITAN MEDICAL CENTER, PALM BEACH, WEST PALM BEACH",26.711192,-80.06043,FL
1,"WEST PALM HOSPITAL, PALM BEACH, WEST PALM BEACH",26.750991,-80.07296,FL
1,"CLEVELAND CLINIC HOSPITAL, BROWARD, WESTON",26.056111,-80.36373,FL
1,"VILLAGES REGIONAL HOSPITAL, THE, SUMTER, THE VILLAGES",28.930573,-81.93806,FL
1,"WUESTHOFF MEDICAL CENTER-MELBOURNE, BREVARD, MELBOURNE",28.13926,-80.65077,FL
1,"SACRED HEART HOSPITAL ON THE EMERALD COAST, WALTON, MIRAMAR BEACH",30.381934,-86.359508,FL
1,"DOCTORS HOSPITAL, MIAMI-DADE, CORAL GABLES",25.720728,-80.27255,FL
1,"LAKEWOOD RANCH MEDICAL CENTER, MANATEE, BRADENTON",27.434755,-82.40211,FL
1,"ST CLOUD REGIONAL MEDICAL CENTER, OSCEOLA, SAINT CLOUD",28.24934,-81.28749,FL
1,"MEMORIAL HOSPITAL JACKSONVILLE, DUVAL, JACKSONVILLE",30.28374,-81.58359,FL
1,"SACRED HEART HOSPITAL ON THE GULF, GULF, PORT SAINT JOE",29.846517,-85.32792,FL
1,"WEST KENDALL BAPTIST HOSPITAL, MIAMI-DADE, MIAMI",25.650232,-80.45925,FL
1,"VIERA HOSPITAL, BREVARD, MELBOURNE",28.21981,-80.69402,FL
1,"PALM BAY HOSPITAL, BREVARD, PALM BAY",28.012241,-80.67729,FL
1,"FLORIDA HOSPITAL WESLEY CHAPEL, PASCO, WESLEY CHAPEL",28.26658,-82.34222,FL
1,"POINCIANA MEDICAL CENTER, OSCEOLA, KISSIMMEE",28.178192,-81.48731,FL
1,"ST VINCENTS MEDICAL CENTER - CLAY COUNTY, CLAY, MIDDLEBURG",30.074926,-81.87932,FL
1,"REGIONAL GENERAL HOSPITAL WILLISTON, LEVY, WILLISTON",29.369207,-82.49831,FL
1,"VA NORTH FLORIDA/SOUTH GEORGIA HEALTHCARE SYSTEM, ALACHUA, GAINESVILLE",29.611545,-82.3941,FL
1,"TAMPA VA MEDICAL CENTER, HILLSBOROUGH, TAMPA",28.048595,-82.45171,FL
1,"MIAMI VA MEDICAL CENTER, MIAMI-DADE, MIAMI",25.782176,-80.23607,FL
1,"PALM BEACH GARDENS MEDICAL CENTER, PALM BEACH, PALM BEACH GARDENS",26.839588,-80.08824,FL
1,"FLORIDA HOSPITAL WAUCHULA, HARDEE, WAUCHULA",27.541676,-81.8127,FL
1,"SHANDS LIVE OAK REGIONAL MEDICAL CENTER, SUWANNEE, LIVE OAK",30.285127,-83.04106,FL
1,"CAMPBELLTON-GRACEVILLE HOSPITAL, JACKSON, GRACEVILLE",30.935306,-85.52171,FL
1,"LAKE BUTLER HOSPITAL, UNION, LAKE BUTLER",30.005135,-82.38103,FL
1,"CALHOUN-LIBERTY HOSPITAL, CALHOUN, BLOUNTSTOWN",30.42007,-85.07299,FL
1,"GEORGE E WEEMS MEMORIAL HOSPITAL, FRANKLIN, APALACHICOLA",29.71877,-85.02704,FL
1,"DOCTORS MEMORIAL HOSPITAL, HOLMES, BONIFAY",30.838337,-85.67495,FL
1,"NORTHWEST FLORIDA COMMUNITY HOSPITAL, WASHINGTON, CHIPLEY",30.636228,-85.5775,FL
1,"HENDRY REGIONAL MEDICAL CENTER, HENDRY, CLEWISTON",26.714088,-80.9973,FL
1,"SHANDS STARKE REGIONAL MEDICAL CENTER, BRADFORD, STARKE",29.937512,-82.11706,FL
1,"MADISON COUNTY MEMORIAL HOSPITAL, MADISON, MADISON",30.476181,-83.40303,FL
1,"FISHERMEN'S HOSPITAL, MONROE, MARATHON",24.731758,-81.0278,FL
1,"MARINERS HOSPITAL, MONROE, TAVERNIER",25.006349,-80.53139,FL
1,"HAMILTON MEDICAL CENTER, WHITFIELD, DALTON",34.766095,-84.9865,FL
1,"UPSON REGIONAL MEDICAL CENTER, UPSON, THOMASTON",32.895794,-84.33084,FL
1,"MAYO CLINIC HEALTH SYSTEM IN WAYCROSS, INC, WARE, WAYCROSS",31.220059,-82.35133,FL
1,"HUTCHESON MEDICAL CENTER, CATOOSA, FORT OGLETHORPE",34.948979,-85.25212,FL
1,"NORTHSIDE HOSPITAL FORSYTH, FORSYTH, CUMMING",34.201503,-84.09764,FL
1,"ST MARY'S HOSPITAL, CLARKE, ATHENS",33.945619,-83.41732,FL
1,"PHOEBE PUTNEY MEMORIAL HOSPITAL, DOUGHERTY, ALBANY",31.543065,-84.219594,FL
1,"NORTHSIDE HOSPITAL CHEROKEE, CHEROKEE, CANTON",34.228478,-84.50402,FL
1,"EMORY UNIVERSITY HOSPITAL, DEKALB, ATLANTA",33.793754,-84.3238,FL
1,"TANNER MEDICAL CENTER - CARROLLTON, CARROLL, CARROLLTON",33.588486,-85.1062,FL
1,"TANNER MEDICAL CENTER VILLA RICA, CARROLL, VILLA RICA",33.718079,-84.92356,FL
1,"WEST GEORGIA MEDICAL CENTER, TROUP, LAGRANGE",33.029838,-85.0745,FL
1,"NEWTON MEDICAL CENTER, NEWTON, COVINGTON",33.581406,-83.851,FL
1,"GORDON HOSPITAL, GORDON, CALHOUN",34.4966,-84.93798,FL
1,"CANDLER HOSPITAL, CHATHAM, SAVANNAH",31.971394,-81.07156,FL
1,"SOUTHEAST GEORGIA HEALTH SYSTEM- BRUNSWICK CAMPUS, GLYNN, BRUNSWICK",31.166786,-81.49213,FL
1,"ELBERT MEMORIAL HOSPITAL, ELBERT, ELBERTON",34.119972,-82.825,FL
1,"ST MARY'S SACRED HEART HOSPITAL, INC, FRANKLIN, LAVONIA",34.450501,-83.09448,FL
1,"UNIVERSITY HOSPITAL, RICHMOND, AUGUSTA",33.461121,-81.97265,FL
1,"NORTHEAST GEORGIA MEDICAL CENTER, INC, HALL, GAINESVILLE",34.306643,-83.82352,FL
1,"CARTERSVILLE MEDICAL CENTER, BARTOW, CARTERSVILLE",34.167327,-84.82764,FL
1,"SPALDING REGIONAL HOSPITAL, SPALDING, GRIFFIN",33.268185,-84.27306,FL
1,"STEPHENS COUNTY HOSPITAL, STEPHENS, TOCCOA",34.561584,-83.31718,FL
1,"MEDICAL COLLEGE OF GA HOSPITALS AND CLINICS, RICHMOND, AUGUSTA",33.386041,-82.090996,FL
1,"WELLSTAR KENNESTONE HOSPITAL, COBB, MARIETTA",33.932052,-84.54746,FL
1,"MEMORIAL HEALTH UNIV MED CEN, INC, CHATHAM, SAVANNAH",31.971394,-81.07156,FL
1,"JOHN D ARCHBOLD MEMORIAL HOSPITAL, THOMAS, THOMASVILLE",30.817654,-83.98919,FL
1,"TRINITY HOSPITAL OF AUGUSTA, RICHMOND, AUGUSTA",33.474136,-82.01018,FL
1,"NORTHRIDGE MEDICAL CENTER, JACKSON, COMMERCE",34.210423,-83.46842,FL
1,"HABERSHAM COUNTY MEDICAL CTR, HABERSHAM, DEMOREST",34.573072,-83.55992,FL
1,"WELLSTAR PAULDING HOSPITAL, PAULDING, HIRAM",33.867574,-84.77103,FL
1,"ST JOSEPH'S HOSPITAL - SAVANNAH, CHATHAM, SAVANNAH",31.986249,-81.20259,FL
1,"PHOEBE SUMTER MEDICAL CENTER, SUMTER, AMERICUS",32.085491,-84.252665,FL
1,"BARROW REGIONAL MEDICAL CENTER, BARROW, WINDER",33.992538,-83.71061,FL
1,"CLEARVIEW  REGIONAL MEDICAL CENTER, WALTON, MONROE",33.786041,-83.69901,FL
1,"MURRAY MEDICAL CENTER, MURRAY, CHATSWORTH",34.753129,-84.77502,FL
1,"UNION GENERAL HOSPITAL, UNION, BLAIRSVILLE",34.875556,-84.00419,FL
1,"FLOYD MEDICAL CENTER, FLOYD, ROME",34.290508,-85.213817,FL
1,"MIDTOWN MEDICAL CENTER, MUSCOGEE, COLUMBUS",32.471492,-84.98005,FL
1,"HOUSTON MEDICAL CENTER, HOUSTON, WARNER ROBINS",32.638316,-83.64332,FL
1,"APPLING HOSPITAL, APPLING, BAXLEY",31.768849,-82.35198,FL
1,"DORMINY MEDICAL CENTER, BEN HILL, FITZGERALD",31.720029,-83.25093,FL
1,"ST MARY'S HOSPITAL, CLARKE, ATHENS",33.945619,-83.41732,FL
1,"EAST GEORGIA REGIONAL MEDICAL CENTER, BULLOCH, STATESBORO",32.423083,-81.80677,FL
1,"DEKALB MEDICAL CENTER, DEKALB, DECATUR",33.811354,-84.28335,FL
1,"EMORY UNIVERSITY HOSPITAL MIDTOWN, FULTON, ATLANTA",33.771755,-84.38065,FL
1,"GRADY MEMORIAL HOSPITAL, FULTON, ATLANTA",33.752856,-84.39013,FL
1,"SAINT JOSEPH'S HOSPITAL OF ATLANTA, INC, FULTON, ATLANTA",33.879003,-84.37203,FL
1,"PIEDMONT HOSPITAL, FULTON, ATLANTA",33.794055,-84.38525,FL
1,"WASHINGTON COUNTY REGIONAL MEDICAL CENTER, WASHINGTON, SANDERSVILLE",32.984529,-82.8375,FL
1,"GWINNETT MEDICAL CENTER, GWINNETT, LAWRENCEVILLE",33.949054,-83.98565,FL
1,"COFFEE REGIONAL MEDICAL CENTER, COFFEE, DOUGLAS",31.522042,-82.84153,FL
1,"ROCKDALE MEDICAL CENTER, ROCKDALE, CONYERS",33.696714,-84.01732,FL
1,"DODGE COUNTY HOSPITAL, DODGE, EASTMAN",32.193953,-83.1848,FL
1,"TIFT REGIONAL MEDICAL CENTER, TIFT, TIFTON",31.485438,-83.503621,FL
1,"JEFFERSON HOSPITAL, JEFFERSON, LOUISVILLE",33.008983,-82.378,FL
1,"COOK  MEDICAL CENTER  A CAMPUS OF TIFT REG MED CTR, COOK, ADEL",31.133004,-83.42736,FL
1,"CRISP REGIONAL HOSPITAL, CRISP, CORDELE",31.950899,-83.77808,FL
1,"COLQUITT REGIONAL MEDICAL CENTER, COLQUITT, MOULTRIE",31.165358,-83.77172,FL
1,"MEDICAL CENTER OF CENTRAL GEORGIA, BIBB, MACON",32.830839,-83.63529,FL
1,"EMANUEL MEDICAL CENTER, EMANUEL, SWAINSBORO",32.605196,-82.3391,FL
1,"UNIVERSITY MCDUFFIE COUNTY REGIONAL MEDICAL CENTER, MCDUFFIE, THOMSON",33.490536,-82.5028,FL
1,"BURKE MEDICAL CENTER, BURKE, WAYNESBORO",33.080965,-81.9944,FL
1,"ATLANTA MEDICAL CENTER, FULTON, ATLANTA",33.745739,-84.3764,FL
1,"SOUTH GEORGIA MEDICAL CENTER, LOWNDES, VALDOSTA",30.827965,-83.252192,FL
1,"WAYNE MEMORIAL HOSPITAL, WAYNE, JESUP",31.636895,-81.90843,FL
1,"FAIRVIEW PARK HOSPITAL, LAURENS, DUBLIN",32.526359,-82.93375,FL
1,"MEADOWS REGIONAL MEDICAL CENTER, TOOMBS, VIDALIA",32.220155,-82.41493,FL
1,"ST FRANCIS HOSPITAL, INC, MUSCOGEE, COLUMBUS",32.495841,-84.963981,FL
1,"IRWIN COUNTY HOSPITAL, IRWIN, OCILLA",31.586426,-83.27583,FL
1,"TAYLOR REGIONAL HOSPITAL, PULASKI, HAWKINSVILLE",32.270314,-83.48517,FL
1,"EVANS MEMORIAL HOSPITAL, EVANS, CLAXTON",32.162077,-81.90984,FL
1,"WELLSTAR COBB HOSPITAL, COBB, AUSTELL",33.828061,-84.62593,FL
1,"SOUTHEAST GEORGIA HEALTH SYSTEM- CAMDEN CAMPUS, CAMDEN, SAINT MARYS",30.761081,-81.56912,FL
1,"OCONEE REGIONAL MEDICAL CENTER, BALDWIN, MILLEDGEVILLE",33.083579,-83.23397,FL
1,"PERRY HOSPITAL, HOUSTON, PERRY",32.460791,-83.73541,FL
1,"SAINT JOSEPH'S HOSPITAL OF ATLANTA, INC, FULTON, ATLANTA",33.879003,-84.37203,FL
1,"COLISEUM MEDICAL CENTERS, BIBB, MACON",32.839005,-83.56749,FL
1,"SOUTHERN REGIONAL MEDICAL CENTER, CLAYTON, RIVERDALE",33.555145,-84.40108,FL
1,"REDMOND REGIONAL MEDICAL CENTER, FLOYD, ROME",34.281423,-85.23825,FL
1,"DOCTORS HOSPITAL, RICHMOND, AUGUSTA",33.475936,-82.0697,FL
1,"WELLSTAR DOUGLAS HOSPITAL, DOUGLAS, DOUGLASVILLE",33.769636,-84.74967,FL
1,"CHESTATEE REGIONAL HOSPITAL, LUMPKIN, DAHLONEGA",34.542098,-83.99718,FL
1,"FANNIN REGIONAL HOSPITAL, FANNIN, BLUE RIDGE",34.851171,-84.32905,FL
1,"FLINT RIVER COMMUNITY HOSPITAL, MACON, MONTEZUMA",32.293293,-83.98913,FL
1,"PIEDMONT HENRY HOSPITAL, HENRY, STOCKBRIDGE",33.547578,-84.21809,FL
1,"EASTSIDE MEDICAL CENTER, GWINNETT, SNELLVILLE",33.860955,-84.01807,FL
1,"NORTH FULTON HOSPITAL, FULTON, ROSWELL",34.032532,-84.31774,FL
1,"NORTHSIDE MEDICAL CENTER, MUSCOGEE, COLUMBUS",32.53554,-84.92583,FL
1,"COLISEUM NORTHSIDE HOSPITAL, BIBB, MACON",32.88899,-83.72204,FL
1,"NORTH GEORGIA MEDICAL CENTER, GILMER, ELLIJAY",34.688716,-84.46716,FL
1,"TURNING POINT HOSPITAL, COLQUITT, MOULTRIE",31.138011,-83.716729,FL
1,"PIEDMONT FAYETTE HOSPITAL, FAYETTE, FAYETTEVILLE",33.47875,-84.47668,FL
1,"PIEDMONT MOUNTAINSIDE HOSPITAL INC, PICKENS, JASPER",34.454934,-84.41583,FL
1,"DEKALB MEDICAL CENTER AT HILLANDALE, DEKALB, LITHONIA",33.750257,-84.0964,FL
1,"PIEDMONT NEWNAN HOSPITAL, INC, COWETA, NEWNAN",33.400875,-84.71206,FL
1,"EMORY JOHNS CREEK HOSPITAL, CHATTOOGA, JOHNS CREEK",34.020621,-84.14294,FL
1,"PIEDMONT NEWNAN HOSPITAL, INC, COWETA, NEWNAN",33.400875,-84.71206,FL
1,"SGMC BERRIEN CAMPUS, BERRIEN, NASHVILLE",31.199,-83.2188,FL
1,"DEKALB MEDICAL CENTER, DEKALB, DECATUR",33.811354,-84.28335,FL
1,"UNIVERSITY HOSPITAL, RICHMOND, AUGUSTA",33.461121,-81.97265,FL
1,"FAIRVIEW PARK HOSPITAL, LAURENS, DUBLIN",32.526359,-82.93375,FL
1,"BLECKLEY MEMORIAL HOSPITAL, BLECKLEY, COCHRAN",32.397039,-83.3404,FL
1,"JASPER MEMORIAL HOSPITAL, JASPER, MONTICELLO",33.319093,-83.70862,FL
1,"MORGAN MEMORIAL HOSPITAL, MORGAN, MADISON",33.588436,-83.47936,FL
1,"EFFINGHAM HOSPITAL, EFFINGHAM, SPRINGFIELD",32.390879,-81.32427,FL
1,"CLINCH MEMORIAL HOSPITAL, CLINCH, HOMERVILLE",31.062818,-82.72399,FL
1,"MEDICAL CENTER OF PEACH COUNTY, THE, PEACH, BYRON",32.652313,-83.75918,FL
1,"PUTNAM GENERAL HOSPITAL, PUTNAM, EATONTON",33.318579,-83.35432,FL
1,"WARM SPRINGS MEDICAL CENTER, MERIWETHER, WARM SPRINGS",32.896166,-84.71191,FL
1,"MONROE COUNTY HOSPITAL, MONROE, FORSYTH",33.0409,-83.92941,FL
1,"SYLVAN GROVE HOSPITAL, BUTTS, JACKSON",33.294522,-83.97568,FL
1,"HIGGINS GENERAL HOSPITAL, HARALSON, BREMEN",33.723939,-85.14282,FL
1,"CHATUGE REGIONAL HOSPITAL, TOWNS, HIAWASSEE",34.923847,-83.7231,FL
1,"WILLS MEMORIAL HOSPITAL, WILKES, WASHINGTON",33.728754,-82.72612,FL
1,"SGMC LANIER CAMPUS, LANIER, LAKELAND",31.055578,-83.07103,FL
1,"BACON COUNTY HOSPITAL, BACON, ALMA",31.551458,-82.44618,GA
1,"PHOEBE WORTH MEDICAL CENTER, WORTH, SYLVESTER",31.536886,-83.86041,GA
1,"ST MARY'S GOOD SAMARITAN HOSPITAL, GREENE, GREENSBORO",33.547041,-83.19797,GA
1,"POLK MEDICAL CENTER, POLK, CEDARTOWN",34.010162,-85.25762,GA
1,"MITCHELL COUNTY HOSPITAL, MITCHELL, CAMILLA",31.209854,-84.23667,GA
1,"BROOKS COUNTY HOSPITAL, BROOKS, QUITMAN",30.783639,-83.55343,GA
1,"JEFF DAVIS HOSPITAL, JEFF DAVIS, HAZLEHURST",31.844772,-82.59809,GA
1,"CANDLER COUNTY HOSPITAL, CANDLER, METTER",32.414401,-82.05534,GA
1,"LIBERTY REGIONAL MEDICAL CENTER, LIBERTY, HINESVILLE",31.806832,-81.437074,GA
1,"MOUNTAIN LAKES MEDICAL CENTER, RABUN, CLAYTON",34.882362,-83.4156,GA
1,"THE QUEENS MEDICAL CENTER, HONOLULU, HONOLULU",21.313033,-157.85615,GA
1,"MAUI MEMORIAL MEDICAL CENTER, MAUI, WAILUKU",20.889294,-156.50497,GA
1,"WAHIAWA GENERAL HOSPITAL, HONOLULU, WAHIAWA",21.501722,-158.03543,GA
1,"HILO MEDICAL CENTER, HAWAII, HILO",19.713562,-155.09842,GA
1,"CASTLE MEDICAL CENTER, HONOLULU, KAILUA",21.3949,-157.74529,GA
1,"KUAKINI MEDICAL CENTER, HONOLULU, HONOLULU",21.3307,-157.85913,GA
1,"KAISER FOUNDATION HOSPITAL, HONOLULU, HONOLULU",21.3452,-157.88165,GA
1,"WILCOX MEMORIAL HOSPITAL, KAUAI, LIHUE",21.98081,-159.37746,GA
1,"KONA COMMUNITY HOSPITAL, HAWAII, KEALAKEKUA",19.526845,-155.9215,GA
1,"THE QUEENS MEDICAL CENTER, HONOLULU, HONOLULU",21.313033,-157.85615,GA
1,"PALI MOMI MEDICAL CENTER, HONOLULU, AIEA",21.389167,-157.93091,GA
1,"NORTH HAWAII COMMUNITY HOSPITAL, HAWAII, KAMUELA",20.040191,-155.69999,GA
1,"KAUAI VETERANS MEMORIAL HOSPITAL, KAUAI, WAIMEA",21.997746,-159.7187,GA
1,"KAU HOSPITAL, HAWAII, PAHALA",19.226749,-155.49217,GA
1,"MOLOKAI GENERAL HOSPITAL, MAUI, KAUNAKAKAI",21.111246,-156.9741,GA
1,"KAHUKU MEDICAL CENTER, HONOLULU, KAHUKU",21.68762,-157.95903,GA
1,"SAMUEL MAHELONA MEMORIAL HOSPITAL, KAUAI, KAPAA",22.077472,-159.34463,GA
1,"KULA HOSPITAL, MAUI, KULA",20.724391,-156.34031,GA
1,"ST LUKE'S MAGIC VALLEY RMC, TWIN FALLS, TWIN FALLS",42.530288,-114.47509,GA
1,"ST JOSEPH REGIONAL MEDICAL CENTER, NEZ PERCE, LEWISTON",46.388753,-116.98484,GA
1,"ST LUKE'S REGIONAL MEDICAL CENTER, ADA, BOISE",43.595763,-116.16367,GA
1,"ST ALPHONSUS REGIONAL MEDICAL CENTER, ADA, BOISE",43.593523,-116.19903,GA
1,"SAINT ALPHONSUS MEDICAL CENTER - NAMPA, CANYON, NAMPA",43.529812,-116.57761,GA
1,"WEST VALLEY MEDICAL CENTER, CANYON, CALDWELL",43.658834,-116.67755,GA
1,"EASTERN IDAHO REGIONAL MEDICAL CENTER, BONNEVILLE, IDAHO FALLS",43.465998,-112.01425,GA
1,"MADISON MEMORIAL HOSPITAL, MADISON, REXBURG",43.80991,-111.80942,GA
1,"PORTNEUF MEDICAL CENTER, BANNOCK, POCATELLO",42.883214,-112.43968,GA
1,"BOISE VA MEDICAL CENTER, ADA, BOISE",43.627734,-116.20756,GA
1,"KOOTENAI HEALTH, KOOTENAI, COEUR D'ALENE",47.66655,-116.7757,GA
1,"TREASURE VALLEY HOSPITAL, ADA, BOISE",43.63123,-116.28716,GA
1,"EASTERN IDAHO REGIONAL MEDICAL CENTER, BONNEVILLE, IDAHO FALLS",43.465998,-112.01425,GA
1,"NORTHWEST SPECIALTY HOSPITAL, KOOTENAI, POST FALLS",47.720306,-116.94564,GA
1,"IDAHO DOCTORS HOSPITAL, BINGHAM, BLACKFOOT",43.211238,-112.39454,GA
1,"BOUNDARY COMMUNITY HOSPITAL, BOUNDARY, BONNERS FERRY",48.770783,-116.41051,GA
1,"NORTH CANYON MEDICAL CENTER, GOODING, GOODING",42.944346,-114.70605,GA
1,"ONEIDA COUNTY HOSPITAL, ONEIDA, MALAD",42.192579,-112.32902,GA
1,"HARMS MEMORIAL HOSPITAL, POWER, AMERICAN FALLS",42.75159,-112.91931,GA
1,"STEELE MEMORIAL MEDICAL CENTER, LEMHI, SALMON",45.101697,-113.90306,GA
1,"WEISER MEMORIAL HOSPITAL, WASHINGTON, WEISER",44.310781,-116.93326,GA
1,"CASCADE MEDICAL CENTER, VALLEY, CASCADE",44.476882,-115.9729,GA
1,"CARIBOU MEMORIAL HOSPITAL, CARIBOU, SODA SPRINGS",42.693133,-111.57731,GA
1,"ST LUKE'S JEROME, JEROME, JEROME",42.710124,-114.46394,GA
1,"ST LUKE'S ELMORE MEDICAL CENTER, ELMORE, MOUNTAIN HOME",43.208029,-115.62345,GA
1,"ST LUKE'S MCCALL, VALLEY, MC CALL",44.854428,-116.04991,GA
1,"TETON VALLEY HOSPITAL, TETON, DRIGGS",43.726688,-111.11484,GA
1,"SHOSHONE MEDICAL CENTER, SHOSHONE, KELLOGG",47.542783,-116.11848,GA
1,"SYRINGA GENERAL HOSPITAL, IDAHO, GRANGEVILLE",45.923869,-116.13146,GA
1,"BEAR LAKE MEMORIAL HOSPITAL, BEAR LAKE, MONTPELIER",42.327996,-111.32637,GA
1,"BENEWAH COMMUNITY HOSPITAL, BENEWAH, ST MARIES",47.274904,-116.57392,GA
1,"WALTER KNOX MEMORIAL HOSPITAL, GEM, EMMETT",43.888285,-116.5143,GA
1,"MINIDOKA MEMORIAL HOSPITAL, MINIDOKA, RUPERT",42.671054,-113.62976,GA
1,"CLEARWATER VALLEY HOSPITAL & CLINICS, CLEARWATER, OROFINO",46.485334,-116.20071,GA
1,"ST MARY'S HOSPITAL, IDAHO, COTTONWOOD",46.041157,-116.38568,GA
1,"FRANKLIN COUNTY MEDICAL CENTER, FRANKLIN, PRESTON",42.165399,-111.82369,GA
1,"ST LUKE'S WOOD RIVER MEDICAL CENTER, BLAINE, KETCHUM",43.750744,-114.5198,GA
1,"LOST RIVERS MEDICAL CENTER, BUTTE, ARCO",43.65183,-113.31639,GA
1,"IDAHO DOCTORS HOSPITAL, BINGHAM, BLACKFOOT",43.211238,-112.39454,GA
1,"CASSIA REGIONAL MEDICAL CENTER, CASSIA, BURLEY",42.496588,-113.79857,GA
1,"GRITMAN MEDICAL CENTER, LATAH, MOSCOW",46.727636,-116.98067,GA
1,"BONNER GENERAL HOSPITAL, BONNER, SANDPOINT",48.362033,-116.55101,GA
1,"GRAHAM HOSPITAL ASSOCIATION, FULTON, CANTON",40.552853,-90.02794,GA
1,"ALTON MEMORIAL HOSPITAL, MADISON, ALTON",38.906065,-90.15909,GA
1,"PRESENCE SAINT JOSEPH MEDICAL CENTER, WILL, JOLIET",41.54338,-88.11963,GA
1,"LOYOLA GOTTLIEB MEMORIAL HOSPITAL, COOK, MELROSE PARK",41.89988,-87.85978,GA
1,"EVANSTON HOSPITAL, COOK, EVANSTON",42.056391,-87.69684,GA
1,"HERRIN HOSPITAL, WILLIAMSON, HERRIN",37.804014,-89.02702,GA
1,"KATHERINE SHAW BETHEA HOSPITAL, LEE, DIXON",41.843702,-89.47636,GA
1,"PROCTOR HOSPITAL, PEORIA, PEORIA",40.755343,-89.59799,GA
1,"BLESSING HOSPITAL, ADAMS, QUINCY",39.929597,-91.37415,GA
1,"MT SINAI HOSPITAL MEDICAL CENTER, COOK, CHICAGO",41.850532,-87.6699,GA
1,"SHELBY MEMORIAL HOSPITAL, SHELBY, SHELBYVILLE",39.409126,-88.80153,GA
1,"ST MARYS HOSPITAL, LA SALLE, STREATOR",41.129482,-88.83666,GA
1,"COPLEY MEMORIAL HOSPITAL, KANE, AURORA",41.760067,-88.25218,GA
1,"SHERMAN HOSPITAL, KANE, ELGIN",42.034776,-88.32393,GA
1,"ST ANTHONYS MEMORIAL HOSPITAL, EFFINGHAM, EFFINGHAM",39.123807,-88.56,GA
1,"VISTA MEDICAL CENTER WEST, LAKE, WAUKEGAN",42.361271,-87.86187,GA
1,"ST MARYS HOSPITAL, MARION, CENTRALIA",38.523736,-89.1257,GA
1,"JESSE BROWN VA MEDICAL CENTER - VA CHICAGO, COOK, CHICAGO",41.880682,-87.6877,GA
1,"GALESBURG COTTAGE HOSPITAL, KNOX, GALESBURG",40.948073,-90.36871,GA
1,"CGH MEDICAL CENTER, WHITESIDE, STERLING",41.813776,-89.70537,GA
1,"GOOD SAMARITAN REGIONAL HLTH CENTER, JEFFERSON, MOUNT VERNON",38.322558,-88.90842,GA
1,"ADVOCATE TRINITY HOSPITAL, COOK, CHICAGO",41.719973,-87.5557,GA
1,"WEST SUBURBAN MEDICAL CENTER, COOK, OAK PARK",41.893941,-87.78899,GA
1,"VA ILLIANA HEALTHCARE SYSTEM - DANVILLE, VERMILION, DANVILLE",40.133786,-87.62898,GA
1,"ALTON MEMORIAL HOSPITAL, MADISON, ALTON",38.906065,-90.15909,GA
1,"ST JOHNS HOSPITAL, SANGAMON, SPRINGFIELD",39.749457,-89.606017,GA
1,"MACNEAL  HOSPITAL, COOK, BERWYN",41.836981,-87.79095,GA
1,"PASSAVANT AREA HOSPITAL, MORGAN, JACKSONVILLE",39.730234,-90.22941,GA
1,"JERSEY COMMUNITY HOSPITAL, JERSEY, JERSEYVILLE",39.114762,-90.32442,GA
1,"PALOS COMMUNITY HOSPITAL, COOK, PALOS HEIGHTS",41.663548,-87.79148,GA
1,"RUSH OAK PARK HOSPITAL, COOK, OAK PARK",41.87355,-87.7885,GA
1,"GALESBURG COTTAGE HOSPITAL, KNOX, GALESBURG",40.948073,-90.36871,GA
1,"ADVENTIST LA GRANGE MEMORIAL HOSPITAL, COOK, LA GRANGE",41.788536,-87.87605,GA
1,"SAINT FRANCIS MEDICAL CENTER, PEORIA, PEORIA",40.702487,-89.589797,GA
1,"ROSELAND COMMUNITY HOSPITAL, COOK, CHICAGO",41.695434,-87.62255,GA
1,"TOUCHETTE REGIONAL HOSPITAL INC, SAINT CLAIR, CENTREVILLE",38.59035,-90.13276,GA
1,"HINES VA MEDICAL CENTER, COOK, HINES",41.858028,-87.83865,GA
1,"PRESENCE SAINT FRANCIS HOSPITAL, COOK, EVANSTON",42.030327,-87.68828,GA
1,"LOUIS A WEISS MEMORIAL HOSPITAL, COOK, CHICAGO",41.973181,-87.6665,GA
1,"LORETTO HOSPITAL, COOK, CHICAGO",41.881331,-87.75671,GA
1,"VISTA MEDICAL CENTER WEST, LAKE, WAUKEGAN",42.361271,-87.86187,GA
1,"THE UNIVERSITY OF CHICAGO MEDICAL CENTER, COOK, CHICAGO",41.779384,-87.60544,GA
1,"MC DONOUGH DISTRICT HOSPITAL, MCDONOUGH, MACOMB",40.456986,-90.6681,GA
1,"MARION IL VA MEDICAL CENTER, WILLIAMSON, MARION",37.724504,-88.92968,GA
1,"THE CARLE FOUNDATION HOSPITAL, CHAMPAIGN, URBANA",40.109647,-88.21246,GA
1,"VA ILLIANA HEALTHCARE SYSTEM - DANVILLE, VERMILION, DANVILLE",40.133786,-87.62898,GA
1,"SAINT ANTHONY HOSPITAL, COOK, CHICAGO",41.850232,-87.718,GA
1,"MIDWESTERN REGION MED CENTER, LAKE, ZION",42.451371,-87.84862,GA
1,"MORRIS HOSPITAL & HEALTHCARE CENTERS, GRUNDY, MORRIS",41.370642,-88.40749,GA
1,"ST BERNARD HOSPITAL, COOK, CHICAGO",41.776983,-87.6404,GA
1,"OTTAWA REGIONAL HOSPITAL & HEALTHCARE CENTER, LA SALLE, OTTAWA",41.35263,-88.84734,GA
1,"THE CARLE FOUNDATION HOSPITAL, CHAMPAIGN, URBANA",40.109647,-88.21246,GA
1,"SWEDISH COVENANT HOSPITAL, COOK, CHICAGO",41.971614,-87.70256,GA
1,"THOREK MEMORIAL HOSPITAL, COOK, CHICAGO",41.953256,-87.6629,GA
1,"CENTEGRA HEALTH SYSTEM - MC HENRY HOSPITAL, MCHENRY, MCHENRY",42.348406,-88.24769,GA
1,"PRESENCE RESURRECTION MEDICAL CENTER, COOK, CHICAGO",41.99623,-87.81091,GA
1,"METROSOUTH MEDICAL CENTER, COOK, BLUE ISLAND",41.656592,-87.68154,HI
1,"JESSE BROWN VA MEDICAL CENTER - VA CHICAGO, COOK, CHICAGO",41.880682,-87.6877,HI
1,"PEKIN MEMORIAL HOSPITAL, TAZEWELL, PEKIN",40.567088,-89.63382,HI
1,"HINSDALE HOSPITAL, DUPAGE, HINSDALE",41.772915,-87.92996,HI
1,"JESSE BROWN VA MEDICAL CENTER - VA CHICAGO, COOK, CHICAGO",41.880682,-87.6877,HI
1,"GATEWAY REGIONAL MEDICAL CENTER, MADISON, GRANITE CITY",38.720938,-90.11431,HI
1,"ADVOCATE BROMENN MEDICAL CENTER, MCLEAN, NORMAL",40.515485,-88.98629,HI
1,"NORTHWESTERN LAKE FOREST HOSPITAL, LAKE, LAKE FOREST",42.238087,-87.86093,HI
1,"HOLY CROSS HOSPITAL, COOK, CHICAGO",41.777482,-87.71155,HI
1,"DECATUR MEMORIAL HOSPITAL, MACON, DECATUR",39.878041,-88.95637,HI
1,"GREENVILLE REGIONAL HOSPITAL, BOND, GREENVILLE",38.889355,-89.40987,HI
1,"ST MARGARETS HOSPITAL, BUREAU, SPRING VALLEY",41.332908,-89.20847,HI
1,"ST JOSEPHS HOSPITAL, CLINTON, BREESE",38.620018,-89.5305,HI
1,"RICHLAND MEMORIAL HOSPITAL, RICHLAND, OLNEY",38.72456,-88.08658,HI
1,"MEMORIAL MEDICAL CENTER, SANGAMON, SPRINGFIELD",39.749457,-89.606017,HI
1,"JESSE BROWN VA MEDICAL CENTER - VA CHICAGO, COOK, CHICAGO",41.880682,-87.6877,HI
1,"PRESENCE ST MARYS HOSPITAL, KANKAKEE, KANKAKEE",41.114132,-87.86784,HI
1,"MERCY HOSPITAL AND MEDICAL CENTER, COOK, CHICAGO",41.8474,-87.63126,HI
1,"FHN MEMORIAL HOSPITAL, STEPHENSON, FREEPORT",42.300918,-89.63208,ID
1,"SAINT JAMES HOSPITAL, LIVINGSTON, PONTIAC",40.884053,-88.63376,ID
1,"ST JOSEPH MEDICAL CENTER, MCLEAN, BLOOMINGTON",40.477286,-88.99592,ID
1,"MEMORIAL HOSPITAL OF CARBONDALE, JACKSON, CARBONDALE",37.758646,-89.415831,ID
1,"ST MARYS HOSPITAL, MACON, DECATUR",39.828586,-88.92907,ID
1,"IROQUOIS MEMORIAL HOSPITAL, IROQUOIS, WATSEKA",40.784447,-87.74051,ID
1,"FRANCISCAN ST JAMES HEALTH, COOK, OLYMPIA FIELDS",41.51829,-87.69274,ID
1,"PRESENCE MERCY MEDICAL CENTER, KANE, AURORA",41.766029,-88.35254,ID
1,"CENTEGRA HEALTH SYSTEM - WOODSTOCK HOSPITAL, MCHENRY, WOODSTOCK",42.316121,-88.43884,ID
1,"JACKSON PARK HOSPITAL, COOK, CHICAGO",41.761734,-87.57072,ID
1,"LITTLE COMPANY OF MARY HOSPITAL, COOK, EVERGREEN PARK",41.719933,-87.70249,ID
1,"PRESENCE SAINTS MARY AND ELIZABETH MEDICAL CENTER, COOK, CHICAGO",41.900332,-87.66927,ID
1,"ADVOCATE TRINITY HOSPITAL, COOK, CHICAGO",41.719973,-87.5557,ID
1,"ADVOCATE ILLINOIS MASONIC MEDICAL CENTER, COOK, CHICAGO",41.940832,-87.65852,ID
1,"MARION IL VA MEDICAL CENTER, WILLIAMSON, MARION",37.724504,-88.92968,ID
1,"MEMORIAL HOSPITAL, SAINT CLAIR, BELLEVILLE",38.53895,-90.00104,ID
1,"PRESENCE ST MARYS HOSPITAL, KANKAKEE, KANKAKEE",41.114132,-87.86784,ID
1,"ST ELIZABETH HOSPITAL, SAINT CLAIR, BELLEVILLE",38.50046,-89.97654,ID
1,"SARAH BUSH LINCOLN HEALTH CENTER, COLES, MATTOON",39.474889,-88.37421,ID
1,"ADVOCATE LUTHERAN GENERAL HOSPITAL, COOK, PARK RIDGE",42.01183,-87.84158,ID
1,"ADVOCATE ILLINOIS MASONIC MEDICAL CENTER, COOK, CHICAGO",41.940832,-87.65852,ID
1,"SWEDISH AMERICAN HOSPITAL, WINNEBAGO, ROCKFORD",42.25537,-89.07602,ID
1,"EDWARD HOSPITAL, DUPAGE, NAPERVILLE",41.764779,-88.14579,ID
1,"SAINT ANTHONY MEDICAL CENTER, WINNEBAGO, ROCKFORD",42.254087,-89.01776,ID
1,"ILLINOIS VALLEY COMMUNITY HOSPITAL, LA SALLE, PERU",41.330789,-89.1299,ID
1,"ROCKFORD MEMORIAL HOSPITAL, WINNEBAGO, ROCKFORD",42.303365,-89.08246,ID
1,"LOYOLA GOTTLIEB MEMORIAL HOSPITAL, COOK, MELROSE PARK",41.89988,-87.85978,ID
1,"CENTRAL DUPAGE HOSPITAL, DUPAGE, WINFIELD",41.875228,-88.15261,ID
1,"ADVOCATE SOUTH SUBURBAN HOSPITAL, COOK, HAZEL CREST",41.574034,-87.67857,ID
1,"COMMUNITY FIRST MEDICAL CENTER, COOK, CHICAGO",41.944454,-87.79654,ID
1,"NORTHWEST COMMUNITY HOSPITAL 1, COOK, ARLINGTON HEIGHTS",42.069327,-87.98464,ID
1,"ALEXIAN BROTHERS MEDICAL CENTER 1, COOK, ELK GROVE VILLAGE",42.005978,-87.99847,ID
1,"GENESIS HEALTH SYSTEM, ROCK ISLAND, SILVIS",41.501234,-90.41404,ID
1,"LOYOLA UNIVERSITY MEDICAL CENTER, COOK, MAYWOOD",41.880281,-87.84455,ID
1,"TRINITY ROCK ISLAND, ROCK ISLAND, ROCK ISLAND",41.4903,-90.56956,ID
1,"NORTHWESTERN MEMORIAL HOSPITAL, COOK, CHICAGO",41.904667,-87.62504,ID
1,"KISHWAUKEE COMMUNITY HOSPITAL, DEKALB, DEKALB",41.924127,-88.74617,ID
1,"ADVOCATE GOOD SAMARITAN HOSPITAL, DUPAGE, DOWNERS GROVE",41.80348,-88.01827,ID
1,"ANDERSON HOSPITAL, MADISON, MARYVILLE",38.726548,-89.9572,ID
1,"ST ALEXIUS MEDICAL CENTER, COOK, HOFFMAN ESTATES",42.037108,-88.10719,ID
1,"ADVOCATE GOOD SHEPHERD HOSPITAL, LAKE, BARRINGTON",42.160791,-88.15231,ID
1,"ADVENTIST GLENOAKS, DUPAGE, GLENDALE HEIGHTS",41.920228,-88.07891,ID
1,"GOOD SAMARITAN REGIONAL HLTH CENTER, JEFFERSON, MOUNT VERNON",38.322558,-88.90842,IL
1,"PROVIDENT HOSPITAL OF CHICAGO, COOK, CHICAGO",41.801525,-87.60215,IL
1,"ADVENTIST BOLINGBROOK HOSPITAL, WILL, BOLINGBROOK",41.703097,-88.07462,IL
1,"NORTH CHICAGO VA MEDICAL CENTER, LAKE, NORTH CHICAGO",42.326072,-87.85202,IL
1,"THOMAS H BOYD MEMORIAL HOSPITAL, GREENE, CARROLLTON",39.301561,-90.41674,IL
1,"KIRBY MEDICAL CENTER, PIATT, MONTICELLO",40.0334,-88.57375,IL
1,"MIDWEST MEDICAL CENTER, JO DAVIESS, GALENA",42.400744,-90.39738,IL
1,"DR JOHN WARNER HOSPITAL, DEWITT, CLINTON",40.145501,-88.96776,IL
1,"GENESIS MEDICAL CENTER, ALEDO, MERCER, ALEDO",41.202461,-90.73137,IL
1,"MEMORIAL HOSPITAL L, HANCOCK, CARTHAGE",40.414128,-91.11577,IL
1,"COMMUNITY MEMORIAL HOSPITAL, MACOUPIN, STAUNTON",39.011612,-89.78855,IL
1,"PINCKNEYVILLE COMMUNITY HOSPITAL, PERRY, PINCKNEYVILLE",38.078231,-89.38796,IL
1,"ADVOCATE EUREKA  HOSPITAL, WOODFORD, EUREKA",40.718228,-89.27153,IL
1,"OSF SAINT PAUL MEDICAL CENTER, LA SALLE, MENDOTA",41.543149,-89.10696,IL
1,"FAIRFIELD MEMORIAL HOSPITAL 1, WAYNE, FAIRFIELD",38.374627,-88.35735,IL
1,"ROCHELLE COMMUNITY HOSPITAL, OGLE, ROCHELLE",41.935139,-89.06891,IL
1,"MASON DISTRICT HOSPITAL, MASON, HAVANA",40.296415,-90.05163,IL
1,"ILLINI COMMUNITY HOSPITAL, PIKE, PITTSFIELD",39.606349,-90.78642,IL
1,"HOOPESTON COMMUNITY MEMORIAL HOSPITAL, VERMILION, HOOPESTON",40.465869,-87.66766,IL
1,"GIBSON COMMUNITY HOSPITAL, FORD, GIBSON CITY",40.463079,-88.3731,IL
1,"OSF HOLY FAMILY MEDICAL CENTER, WARREN, MONMOUTH",40.918849,-90.64466,IL
1,"HAMMOND HENRY HOSPITAL, HENRY, GENESEO",41.464473,-90.15854,IL
1,"PARIS COMMUNITY HOSPITAL, EDGAR, PARIS",39.608494,-87.69958,IL
1,"FRANKLIN HOSPITAL, FRANKLIN, BENTON",38.000245,-88.92407,IL
1,"ABRAHAM LINCOLN MEMORIAL HOSPITAL, LOGAN, LINCOLN",40.149927,-89.36746,IL
1,"MASSAC MEMORIAL HOSPITAL, MASSAC, METROPOLIS",37.18308,-88.73327,IL
1,"FERRELL HOSPITAL COMMUNITY FOUNDATIONS, SALINE, ELDORADO",37.822259,-88.44456,IL
1,"OSF SAINT LUKES MEDICAL CENTER, HENRY, KEWANEE",41.247536,-89.92848,IL
1,"HAMILTON MEMORIAL HOSPITAL DISTRICT, HAMILTON, MCLEANSBORO",38.090004,-88.53431,IL
1,"WABASH GENERAL HOSPITAL 1, WABASH, MOUNT CARMEL",38.415676,-87.81077,IL
1,"HARDIN COUNTY GENERAL HOSPITAL, HARDIN, ROSICLARE",37.426076,-88.34815,IL
1,"MORRISON COMMUNITY HOSPITAL, WHITESIDE, MORRISON",41.819003,-89.96623,IL
1,"HOPEDALE MEDICAL COMPLEX, TAZEWELL, HOPEDALE",40.422027,-89.42614,IL
1,"MARSHALL BROWNING HOSPITAL, PERRY, DU QUOIN",38.011729,-89.24688,IL
1,"HILLSBORO AREA HOSPITAL, MONTGOMERY, HILLSBORO",39.146809,-89.48442,IL
1,"SARAH D CULBERTSON MEMORIAL HOSPITAL, SCHUYLER, RUSHVILLE",40.134957,-90.55222,IL
1,"ST JOSEPH MEMORIAL HOSPITAL, JACKSON, MURPHYSBORO",37.771806,-89.33971,IL
1,"MERCY HARVARD HOSPITAL, MCHENRY, HARVARD",42.424338,-88.61431,IL
1,"ST JOSEPH'S HOSPITAL, MADISON, HIGHLAND",38.752017,-89.67478,IL
1,"PERRY MEMORIAL HOSPITAL, BUREAU, PRINCETON",41.372528,-89.44315,IL
1,"MEMORIAL HOSPITAL, RANDOLPH, CHESTER",37.921816,-89.82842,IL
1,"TAYLORVILLE MEMORIAL HOSPITAL, CHRISTIAN, TAYLORVILLE",39.548928,-89.29692,IL
1,"VALLEY WEST COMMUNITY HOSPITAL, DEKALB, SANDWICH",41.645393,-88.63052,IL
1,"PANA COMMUNITY HOSPITAL, CHRISTIAN, PANA",39.3928,-89.08194,IL
1,"UNION COUNTY HOSPITAL, UNION, ANNA",37.457806,-89.21408,IL
1,"CRAWFORD MEMORIAL HOSPITAL, CRAWFORD, ROBINSON",39.004728,-87.7495,IL
1,"LAWRENCE COUNTY MEMORIAL HOSPITAL, LAWRENCE, LAWRENCEVILLE",38.738226,-87.65984,IL
1,"SALEM TOWNSHIP HOSPITAL, MARION, SALEM",38.623789,-88.95361,IL
1,"FAYETTE COUNTY HOSPITAL, FAYETTE, VANDALIA",38.961799,-89.10978,IL
1,"CARLINVILLE AREA HOSPITAL, MACOUPIN, CARLINVILLE",39.280289,-89.8757,IL
1,"RED BUD REGIONAL HOSPITAL, RANDOLPH, RED BUD",38.214515,-89.98785,IL
1,"SPARTA COMMUNITY HOSPITAL, RANDOLPH, SPARTA",38.122112,-89.71168,IL
1,"ST FRANCIS HOSPITAL, MONTGOMERY, LITCHFIELD",39.179875,-89.65721,IL
1,"CLAY COUNTY HOSPITAL, CLAY, FLORA",38.667752,-88.48855,IL
1,"JOHNSON MEMORIAL HOSPITAL, JOHNSON, FRANKLIN",39.482105,-86.05043,IL
1,"METHODIST HOSPITALS INC, LAKE, GARY",41.601086,-87.33681,IL
1,"FRANCISCAN ST MARGARET HEALTH - HAMMOND, LAKE, HAMMOND",41.610035,-87.50574,IL
1,"HENDRICKS REGIONAL HEALTH, HENDRICKS, DANVILLE",39.761211,-86.52344,IL
1,"INDIANA UNIVERSITY HEALTH LA PORTE HOSPITAL, LA PORTE, LA PORTE",41.605749,-86.71983,IL
1,"COMMUNITY HOWARD REGIONAL HEALTH INC, HOWARD, KOKOMO",40.450623,-86.12127,IL
1,"ST CATHERINE HOSPITAL INC, LAKE, EAST CHICAGO",41.639735,-87.46084,IL
1,"CLARK MEMORIAL HOSPITAL, CLARK, JEFFERSONVILLE",38.309105,-85.72035,IL
1,"ST VINCENT KOKOMO, HOWARD, KOKOMO",40.469625,-86.11894,IL
1,"MARION GENERAL HOSPITAL, GRANT, MARION",40.58119,-85.66324,IL
1,"SAINT JOSEPH REGIONAL MEDICAL CENTER, ST JOSEPH, MISHAWAKA",41.681487,-86.16811,IL
1,"FRANCISCAN ST ANTHONY HEALTH - MICHIGAN CITY, LA PORTE, MICHIGAN CITY",41.707539,-86.87902,IL
1,"LUTHERAN HOSPITAL OF INDIANA, ALLEN, FORT WAYNE",41.054247,-85.23878,IL
1,"ELKHART GENERAL HOSPITAL, ELKHART, ELKHART",41.707616,-85.97605,IL
1,"PARKVIEW REGIONAL MEDICAL CENTER, ALLEN, FORT WAYNE",41.200465,-85.10219,IL
1,"FRANCISCAN ST ELIZABETH HEALTH - CRAWFORDSVILLE, MONTGOMERY, CRAWFORDSVILLE",40.034554,-86.89143,IL
1,"UNION HOSPITAL INC, VIGO, TERRE HAUTE",39.495436,-87.39209,IL
1,"ESKENAZI HEALTH, MARION, INDIANAPOLIS",39.782842,-86.15673,IL
1,"IU HEALTH GOSHEN HOSPITAL, ELKHART, GOSHEN",41.567559,-85.84885,IL
1,"HENRY COUNTY MEMORIAL HOSPITAL, HENRY, NEW CASTLE",39.92698,-85.3697,IL
1,"ST MARY MEDICAL CENTER INC, LAKE, HOBART",41.533786,-87.26403,IL
1,"PORTER REGIONAL HOSPITAL, PORTER, VALPARAISO",41.47339,-87.03165,IL
1,"HANCOCK REGIONAL HOSPITAL, HANCOCK, GREENFIELD",39.799143,-85.78446,IL
1,"INDIANA UNIVERSITY HEALTH MORGAN HOSPITAL INC, MORGAN, MARTINSVILLE",39.442774,-86.41337,IL
1,"ESKENAZI HEALTH, MARION, INDIANAPOLIS",39.782842,-86.15673,IL
1,"GOOD SAMARITAN HOSPITAL, KNOX, VINCENNES",38.668827,-87.50791,IL
1,"FLOYD MEMORIAL HOSPITAL AND HEALTH SERVICES, FLOYD, NEW ALBANY",38.30382,-85.82522,IL
1,"DEKALB HEALTH, DE KALB, AUBURN",41.352638,-85.04792,IL
1,"TERRE HAUTE REGIONAL HOSPITAL, VIGO, TERRE HAUTE",39.393237,-87.3977,IL
1,"ST JOSEPH HOSPITAL, ALLEN, FORT WAYNE",41.071681,-85.15101,IL
1,"REID HEALTH, WAYNE, RICHMOND",39.831061,-84.89067,IL
1,"VA N. INDIANA HEALTHCARE SYSTEM - MARION, GRANT, MARION",40.53089,-85.65922,IL
1,"INDIANA UNIVERSITY HEALTH BLOOMINGTON HOSPITAL, MONROE, BLOOMINGTON",39.121719,-86.57409,IL
1,"ESKENAZI HEALTH, MARION, INDIANAPOLIS",39.782842,-86.15673,IL
1,"FRANCISCAN ST FRANCIS HEALTH - MOORESVILLE, MORGAN, MOORESVILLE",39.588545,-86.37431,IL
1,"MEMORIAL HOSPITAL OF SOUTH BEND, ST JOSEPH, SOUTH BEND",41.671197,-86.25253,IL
1,"RIVERVIEW HEALTH, HAMILTON, NOBLESVILLE",40.050109,-85.99815,IL
1,"DAVIESS COMMUNITY HOSPITAL, DAVIESS, WASHINGTON",38.658196,-87.17619,IL
1,"FAYETTE REGIONAL HEALTH SYSTEM, FAYETTE, CONNERSVILLE",39.644794,-85.14929,IL
1,"SCHNECK MEDICAL CENTER, JACKSON, SEYMOUR",38.958688,-85.89917,IL
1,"KING'S DAUGHTERS' HEALTH, JEFFERSON, MADISON",38.787175,-85.38031,IL
1,"MEMORIAL HOSPITAL, CASS, LOGANSPORT",40.754787,-86.36684,IL
1,"COMMUNITY HOSPITAL EAST, MARION, INDIANAPOLIS",39.78001,-86.04889,IL
1,"BLUFFTON REGIONAL MEDICAL CENTER, WELLS, BLUFFTON",40.728816,-85.16565,IL
1,"SAINT JOSEPH REGIONAL MEDICAL CENTER - PLYMOUTH, MARSHALL, PLYMOUTH",41.347159,-86.32023,IL
1,"DEACONESS HOSPITAL INC, VANDERBURGH, EVANSVILLE",37.997128,-87.574963,IL
1,"ST VINCENT HOSPITAL & HEALTH SERVICES, MARION, INDIANAPOLIS",39.898107,-86.18232,IL
1,"DEARBORN COUNTY HOSPITAL, DEARBORN, LAWRENCEBURG",39.129059,-84.85887,IL
1,"ST VINCENT ANDERSON REGIONAL HOSPITAL INC, MADISON, ANDERSON",40.098641,-85.68452,IL
1,"INDIANA UNIVERSITY HEALTH BALL MEMORIAL HOSPITAL, DELAWARE, MUNCIE",40.221103,-85.37602,IL
1,"FRANCISCAN ST MARGARET HEALTH - DYER, LAKE, DYER",41.491377,-87.51022,IL
1,"PARKVIEW HUNTINGTON HOSPITAL, HUNTINGTON, HUNTINGTON",40.872261,-85.49061,IL
1,"MAJOR HOSPITAL, SHELBY, SHELBYVILLE",39.523797,-85.77208,IL
1,"ST MARY'S MEDICAL CENTER, VANDERBURGH, EVANSVILLE",37.962292,-87.505512,IL
1,"PARKVIEW WHITLEY HOSPITAL, WHITLEY, COLUMBIA CITY",41.166034,-85.48313,IL
1,"INDIANA UNIVERSITY HEALTH STARKE HOSPITAL, STARKE, KNOX",41.282822,-86.61613,IL
1,"WITHAM HEALTH SERVICES, BOONE, LEBANON",40.047966,-86.46592,IL
1,"FRANCISCAN ST ELIZABETH HEALTH - LAFAYETTE EAST, TIPPECANOE, LAFAYETTE",40.41836,-86.81847,IL
1,"COLUMBUS REGIONAL HOSPITAL, BARTHOLOMEW, COLUMBUS",39.185341,-85.9456,IL
1,"COMMUNITY HOSPITAL OF ANDERSON AND MADISON COUNTY, MADISON, ANDERSON",40.112913,-85.737,IL
1,"MEMORIAL HOSPITAL AND HEALTH CARE CENTER, DUBOIS, JASPER",38.408794,-86.93876,IL
1,"COMMUNITY HOSPITAL, LAKE, MUNSTER",41.551457,-87.50143,IL
1,"FRANCISCAN ST ANTHONY HEALTH - CROWN POINT, LAKE, CROWN POINT",41.418873,-87.34298,IL
1,"COMMUNITY HOSPITAL SOUTH, MARION, INDIANAPOLIS",39.678495,-86.12973,IL
1,"COMMUNITY WESTVIEW HOSPITAL, MARION, INDIANAPOLIS",39.786793,-86.21093,IL
1,"KOSCIUSKO COMMUNITY HOSPITAL, KOSCIUSKO, WARSAW",41.2281,-85.85778,IL
1,"PARKVIEW NOBLE HOSPITAL, NOBLE, KENDALLVILLE",41.449897,-85.26765,IL
1,"WOMEN'S HOSPITAL THE, WARRICK, NEWBURGH",37.958873,-87.37998,IL
1,"DUPONT HOSPITAL LLC, ALLEN, FORT WAYNE",41.150677,-85.12181,IL
1,"ST VINCENT HEART CENTER OF INDIANA LLC, HAMILTON, INDIANAPOLIS",39.934949,-86.16262,IL
1,"ST VINCENT CARMEL HOSPITAL INC, HAMILTON, CARMEL",39.970241,-86.15416,IL
1,"IU HEALTH WEST HOSPITAL, HENDRICKS, AVON",39.764436,-86.39699,IL
1,"ORTHOINDY HOSPITAL, MARION, INDIANAPOLIS",39.89792,-86.28619,IL
1,"ST VINCENT CARMEL HOSPITAL INC, HAMILTON, CARMEL",39.970241,-86.15416,IL
1,"FRANCISCAN ST FRANCIS HEALTH - INDIANAPOLIS, MARION, INDIANAPOLIS",39.67859,-86.08634,IL
1,"SAINT CATHERINE REGIONAL HOSPITAL, CLARK, CHARLESTOWN",38.453813,-85.65443,IL
1,"INDIANA UNIVERSITY HEALTH BLOOMINGTON HOSPITAL, MONROE, BLOOMINGTON",39.121719,-86.57409,IL
1,"COMMUNITY HOSPITAL, LAKE, MUNSTER",41.551457,-87.50143,IL
1,"FRANCISCAN ST ANTHONY HEALTH - CROWN POINT, LAKE, CROWN POINT",41.418873,-87.34298,IL
1,"PARKVIEW REGIONAL MEDICAL CENTER, ALLEN, FORT WAYNE",41.200465,-85.10219,IL
1,"LUTHERAN HOSPITAL OF INDIANA, ALLEN, FORT WAYNE",41.054247,-85.23878,IL
1,"COMMUNITY HOSPITAL NORTH, MARION, INDIANAPOLIS",39.907838,-86.01405,IL
1,"FLOYD MEMORIAL HOSPITAL AND HEALTH SERVICES, FLOYD, NEW ALBANY",38.30382,-85.82522,IL
1,"FRANCISCAN ST ELIZABETH HEALTH - LAFAYETTE EAST, TIPPECANOE, LAFAYETTE",40.41836,-86.81847,IL
1,"WOMEN'S HOSPITAL THE, WARRICK, NEWBURGH",37.958873,-87.37998,IL
1,"KENTUCKIANA MEDICAL CENTER LLC, CLARK, CLARKSVILLE",38.303945,-85.76787,IL
1,"SAINT JOSEPH REGIONAL MEDICAL CENTER, ST JOSEPH, MISHAWAKA",41.681487,-86.16811,IL
1,"COMMUNITY HOSPITAL NORTH, MARION, INDIANAPOLIS",39.907838,-86.01405,IL
1,"ST VINCENT CARMEL HOSPITAL INC, HAMILTON, CARMEL",39.970241,-86.15416,IL
1,"COMMUNITY HOSPITAL OF BREMEN INC, MARSHALL, BREMEN",41.450744,-86.1692,IL
1,"ST VINCENT RANDOLPH HOSPITAL INC, RANDOLPH, WINCHESTER",40.173141,-84.97922,IL
1,"INDIANA UNIVERSITY HEALTH BLACKFORD HOSPITAL, BLACKFORD, HARTFORD CITY",40.449883,-85.36442,IL
1,"ST VINCENT JENNINGS HOSPITAL INC, JENNINGS, NORTH VERNON",39.011225,-85.63325,IL
1,"RUSH MEMORIAL HOSPITAL, RUSH, RUSHVILLE",39.614803,-85.43834,IL
1,"PULASKI MEMORIAL HOSPITAL, PULASKI, WINAMAC",41.048063,-86.64799,IL
1,"INDIANA UNIVERSITY HEALTH PAOLI HOSPITAL, ORANGE, PAOLI",38.533167,-86.48362,IL
1,"ST VINCENT WILLIAMSPORT HOSPITAL INC, WARREN, WILLIAMSPORT",40.300013,-87.38396,IL
1,"ST VINCENT MERCY HOSPITAL, MADISON, ELWOOD",40.279375,-85.83761,IL
1,"ST VINCENT CLAY HOSPITAL INC, CLAY, BRAZIL",39.52503,-87.12738,IL
1,"PARKVIEW WABASH HOSPITAL, INC, WABASH, WABASH",40.795068,-85.82953,IL
1,"INDIANA UNIVERSITY HEALTH TIPTON HOSPITAL INC, TIPTON, TIPTON",40.284041,-86.04681,IL
1,"INDIANA UNIVERSITY HEALTH WHITE MEMORIAL HOSPITAL, WHITE, MONTICELLO",40.777036,-86.75982,IL
1,"WOODLAWN HOSPITAL, FULTON, ROCHESTER",41.073678,-86.23521,IL
1,"ST VINCENT SALEM HOSPITAL INC, WASHINGTON, SALEM",38.605039,-86.08928,IL
1,"CAMERON MEMORIAL COMMUNITY HOSPITAL INC, STEUBEN, ANGOLA",41.656798,-85.0223,IL
1,"ST VINCENT FRANKFORT HOSPITAL INC, CLINTON, FRANKFORT",40.290615,-86.5028,IL
1,"GREENE COUNTY GENERAL HOSPITAL, GREENE, LINTON",39.039636,-87.16987,IL
1,"DUKES MEMORIAL HOSPITAL, MIAMI, PERU",40.753091,-86.07185,IL
1,"GIBSON GENERAL HOSPITAL, GIBSON, PRINCETON",38.34841,-87.57478,IL
1,"JAY COUNTY HOSPITAL, JAY, PORTLAND",40.419489,-84.96936,IL
1,"PERRY COUNTY MEMORIAL HOSPITAL, PERRY, TELL CITY",37.971622,-86.73903,IL
1,"PARKVIEW LAGRANGE HOSPITAL, LAGRANGE, LAGRANGE",41.634457,-85.35825,IL
1,"JASPER COUNTY HOSPITAL, JASPER, RENSSELAER",40.962747,-87.13684,IL
1,"ST MARY'S WARRICK HOSPITAL, INC, WARRICK, BOONVILLE",38.05732,-87.26579,IL
1,"UNION HOSPITAL CLINTON, VERMILLION, CLINTON",39.66851,-87.43577,IL
1,"SULLIVAN COUNTY COMMUNITY HOSPITAL, SULLIVAN, SULLIVAN",39.090479,-87.40667,IL
1,"INDIANA UNIVERSITY HEALTH BEDFORD HOSPITAL, LAWRENCE, BEDFORD",38.865549,-86.46897,IL
1,"MARGARET MARY HEALTH, RIPLEY, BATESVILLE",39.291624,-85.21961,IL
1,"ADAMS MEMORIAL HOSPITAL, ADAMS, DECATUR",40.831351,-84.93704,IL
1,"HARRISON COUNTY HOSPITAL, HARRISON, CORYDON",38.208144,-86.12978,IL
1,"DECATUR COUNTY MEMORIAL HOSPITAL, DECATUR, GREENSBURG",39.333248,-85.47579,IL
1,"PUTNAM COUNTY HOSPITAL, PUTNAM, GREENCASTLE",39.652374,-86.87361,IL
1,"SCOTT MEMORIAL HOSPITAL, SCOTT, SCOTTSBURG",38.684426,-85.80304,IL
1,"INDIANA UNIVERSITY HEALTH BEDFORD HOSPITAL, LAWRENCE, BEDFORD",38.865549,-86.46897,IL
1,"MARSHALLTOWN MEDICAL & SURGICAL CENTER, MARSHALL, MARSHALLTOWN",42.042506,-92.90646,IL
1,"ST ANTHONY REGIONAL HOSPITAL & NURSING HOME, CARROLL, CARROLL",42.066399,-94.86786,IL
1,"KEOKUK AREA HOSPITAL, LEE, KEOKUK",40.409641,-91.40001,IL
1,"TRINITY MUSCATINE, MUSCATINE, MUSCATINE",41.413372,-91.00612,IN
1,"TRINITY REGIONAL MEDICAL CENTER, WEBSTER, FORT DODGE",42.499242,-94.18256,IN
1,"IOWA LUTHERAN HOSPITAL, POLK, DES MOINES",41.606339,-93.59829,IN
1,"CHI HEALTH MERCY COUNCIL BLUFFS, POTTAWATTAMIE, COUNCIL BLUFFS",41.2544,-95.79062,IN
1,"MERCY HOSPITAL, JOHNSON, IOWA CITY",41.662083,-91.50834,IN
1,"MARY GREELEY MEDICAL CENTER, STORY, AMES",42.02933,-93.60966,IN
1,"SKIFF MEDICAL CENTER, JASPER, NEWTON",41.702148,-93.04467,IN
1,"GENESIS MEDICAL CENTER-DAVENPORT, SCOTT, DAVENPORT",41.538582,-90.56223,IN
1,"VA CENTRAL IOWA HEALTHCARE SYSTEM, POLK, DES MOINES",41.625988,-93.67403,IN
1,"SARTORI MEMORIAL HOSPITAL, BLACK HAWK, CEDAR FALLS",42.527184,-92.45609,IN
1,"ST LUKES HOSPITAL, LINN, CEDAR RAPIDS",42.021016,-91.65231,IN
1,"CHI HEALTH MERCY COUNCIL BLUFFS, POTTAWATTAMIE, COUNCIL BLUFFS",41.2544,-95.79062,IN
1,"IOWA CITY VA MEDICAL CENTER, JOHNSON, IOWA CITY",41.650916,-91.56058,IN
1,"GREAT RIVER MEDICAL CENTER, DES MOINES, WEST BURLINGTON",40.830534,-91.17849,IN
1,"UNIVERSITY OF IOWA HOSPITAL & CLINICS, JOHNSON, IOWA CITY",41.662116,-91.54143,IN
1,"MERCY MEDICAL CENTER-NORTH IOWA, CERRO GORDO, MASON CITY",43.153969,-93.20037,IN
1,"COVENANT MEDICAL CENTER, BLACK HAWK, WATERLOO",42.475886,-92.33578,IN
1,"MERCY MEDICAL CENTER-DUBUQUE, DUBUQUE, DUBUQUE",42.515252,-90.6794,IN
1,"MERCY MEDICAL CENTER - CEDAR RAPIDS, LINN, CEDAR RAPIDS",41.982201,-91.61409,IN
1,"MERCY MEDICAL CENTER-CLINTON, CLINTON, CLINTON",41.861633,-90.21539,IN
1,"IOWA METHODIST MEDICAL CENTER, POLK, DES MOINES",41.585939,-93.62004,IN
1,"MERCY MEDICAL CENTER-DES MOINES, POLK, DES MOINES",41.602989,-93.63237,IN
1,"OTTUMWA REGIONAL HEALTH CENTER, WAPELLO, OTTUMWA",41.023872,-92.41741,IN
1,"MERCY MEDICAL CENTER-DES MOINES, POLK, DES MOINES",41.602989,-93.63237,IN
1,"TRINITY BETTENDORF, SCOTT, BETTENDORF",41.551883,-90.48975,IN
1,"ALLEN HOSPITAL, BLACK HAWK, WATERLOO",42.513636,-92.32418,IN
1,"SPENCER MUNICIPAL HOSPITAL, CLAY, SPENCER",43.150381,-95.14466,IN
1,"MERCY MEDICAL CENTER-DUBUQUE, DUBUQUE, DUBUQUE",42.515252,-90.6794,IN
1,"FORT MADISON COMMUNITY HOSPITAL, LEE, FORT MADISON",40.637694,-91.33866,IN
1,"LAKES REGIONAL HEALTHCARE, DICKINSON, SPIRIT LAKE",43.428983,-95.10892,IN
1,"ST LUKES REGIONAL MEDICAL CENTER, WOODBURY, SIOUX CITY",42.524145,-96.40292,IN
1,"GRINNELL REGIONAL MEDICAL CENTER, POWESHIEK, GRINNELL",41.736434,-92.72123,IN
1,"MERCY MEDICAL CENTER-SIOUX CITY, WOODBURY, SIOUX CITY",42.493559,-96.39562,IN
1,"BAUM HARMON MERCY HOSPITAL, OBRIEN, PRIMGHAR",43.086954,-95.61476,IN
1,"IOWA SPECIALTY HOSPITAL - BELMOND, WRIGHT, BELMOND",42.842616,-93.6187,IN
1,"IOWA SPECIALTY HOSPITAL-CLARION, WRIGHT, CLARION",42.738313,-93.7385,IN
1,"GRUNDY COUNTY MEMORIAL HOSPITAL, GRUNDY, GRUNDY CENTER",42.361095,-92.78015,IN
1,"CHI HEALTH  - MERCY CORNING, ADAMS, CORNING",41.002701,-94.76142,IN
1,"POCAHONTAS COMMUNITY HOSPITAL, POCAHONTAS, POCAHONTAS",42.724938,-94.68365,IN
1,"JONES REGIONAL MEDICAL CENTER, JONES, ANAMOSA",42.106972,-91.27531,IN
1,"HANCOCK COUNTY HEALTH SYSTEM, HANCOCK, BRITT",43.104076,-93.8041,IN
1,"FRANKLIN GENERAL HOSPITAL, FRANKLIN, HAMPTON",42.743106,-93.21518,IN
1,"CHI HEALTH MISSOURI VALLEY, HARRISON, MISSOURI VALLEY",41.557887,-95.90651,IN
1,"ADAIR COUNTY MEMORIAL HOSPITAL, ADAIR, GREENFIELD",41.308843,-94.42424,IN
1,"HAWARDEN REGIONAL HEALTHCARE, SIOUX, HAWARDEN",43.005927,-96.4709,IN
1,"GUTTENBERG MUNICIPAL HOSPITAL, CLAYTON, GUTTENBERG",42.765031,-91.11376,IN
1,"GENESIS MEDICAL CENTER-DEWITT, CLINTON, DEWITT",41.825848,-90.52951,IN
1,"GUTHRIE COUNTY HOSPITAL, GUTHRIE, GUTHRIE CENTER",41.690084,-94.52602,IN
1,"KEOKUK COUNTY HEALTH CENTER, KEOKUK, SIGOURNEY",41.328837,-92.19641,IN
1,"PALMER LUTHERAN HEALTH CENTER, FAYETTE, WEST UNION",42.983744,-91.81803,IN
1,"MARENGO MEMORIAL HOSPITAL, IOWA, MARENGO",41.790216,-92.07684,IN
1,"VETERANS MEMORIAL HOSPITAL, ALLAMAKEE, WAUKON",43.265791,-91.47755,IN
1,"CENTRAL COMMUNITY HOSPITAL, CLAYTON, ELKADER",42.855022,-91.40882,IN
1,"COMMUNITY MEMORIAL HOSPITAL MEDICAL CENTER, BREMER, SUMNER",42.846877,-92.11188,IN
1,"SANFORD ROCK RAPIDS MEDICAL CENTER, LYON, ROCK RAPIDS",43.430275,-96.1663,IN
1,"DALLAS COUNTY HOSPITAL, DALLAS, PERRY",41.846679,-94.10961,IN
1,"MITCHELL COUNTY REGIONAL HEALTH, MITCHELL, OSAGE",43.290536,-92.82115,IN
1,"GEORGE C GRAPE COMMUNITY HOSPITAL, FREMONT, HAMBURG",40.622159,-95.66736,IN
1,"GREENE COUNTY MEDICAL CENTER, GREENE, JEFFERSON",42.017677,-94.37939,IN
1,"MADISON COUNTY MEMORIAL HOSPITAL, MADISON, WINTERSET",41.332618,-94.03802,IN
1,"DAVIS COUNTY HOSPITAL, DAVIS, BLOOMFIELD",40.73045,-92.44441,IN
1,"REGIONAL HEALTH SERVICES OF HOWARD COUNTY, HOWARD, CRESCO",43.382021,-92.10263,IN
